City_ID,City,Lat,Lng,Max Temp,Humidity,Cloudiness,Wind Speed,Country,Date
0,iqaluit,63.7506,-68.5145,279.0,60,75,6.71,CA,1687991297
1,selfoss,63.9331,-20.9971,281.51,87,95,11.0,IS,1687991297
2,grytviken,-54.2811,-36.5092,267.06,75,17,4.04,GS,1687991107
3,floro,61.5996,5.0328,290.5,88,75,3.6,NO,1687991298
4,isafjordur,66.0755,-23.124,278.75,89,100,3.89,IS,1687991298
5,porto novo,6.4965,2.6036,296.57,94,96,2.24,BJ,1687991235
6,laojunmiao,39.8333,97.7333,291.71,27,0,2.05,CN,1687991299
7,weno,7.4515,151.8468,302.12,84,75,3.09,FM,1687991299
8,hawaiian paradise park,19.5933,-154.9731,301.5,74,75,6.69,US,1687991108
9,adamstown,-25.066,-130.1015,292.97,67,91,10.33,PN,1687991108
10,tolanaro,-25.0319,46.9987,290.19,94,20,3.09,MG,1687991122
11,waitangi,-43.9535,-176.5597,285.83,96,100,1.34,NZ,1687991110
12,batticaloa,7.7102,81.6924,299.84,78,66,3.12,LK,1687991208
13,kokpekty,48.75,82.4,285.47,72,56,2.69,KZ,1687991300
14,bodo,67.28,14.405,285.25,98,100,1.03,NO,1687991179
15,acarau,-2.8856,-40.12,299.5,82,2,6.44,BR,1687991301
16,bethel,41.3712,-73.414,298.51,77,40,2.57,US,1687991125
17,talnakh,69.4865,88.3972,284.38,61,9,1.04,RU,1687991213
18,villa garcia,22.1667,-101.95,302.37,11,3,7.31,MX,1687991302
19,edinburgh of the seven seas,-37.0676,-12.3116,288.59,97,90,8.4,SH,1687991103
20,atherton,53.5237,-2.4935,288.87,90,100,2.9,GB,1687991302
21,katsuura,35.1333,140.3,297.85,84,65,5.83,JP,1687991302
22,hammerfest,70.6634,23.6821,282.4,87,75,3.6,NO,1687991302
23,bilibino,68.0546,166.4372,285.52,51,100,1.44,RU,1687991105
24,puerto natales,-51.7236,-72.4875,272.93,95,97,1.88,CL,1687991104
25,mirriah,13.7073,9.1501,305.38,35,32,3.41,NE,1687991303
26,vel'sk,61.0701,42.0983,286.69,79,13,1.62,RU,1687991303
27,port-aux-francais,-49.35,70.2167,276.5,95,100,7.03,TF,1687991103
28,boa vista,2.8197,-60.6733,303.14,62,40,2.06,BR,1687991304
29,thompson,55.7435,-97.8558,293.24,77,75,2.57,CA,1687991129
30,chengde,40.9725,117.9361,290.43,85,0,1.39,CN,1687991112
31,olonkinbyen,70.9221,-8.7187,278.88,98,100,5.62,SJ,1687991118
32,vorkuta,67.5,64.0,278.36,68,14,2.65,RU,1687991125
33,mut,36.6439,33.4389,299.15,61,19,0.67,TR,1687991305
34,bredasdorp,-34.5322,20.0403,283.57,84,10,2.8,ZA,1687991126
35,fisterra,42.9049,-9.2629,292.45,83,0,6.8,ES,1687991306
36,puerto ayora,-0.7393,-90.3518,302.13,90,12,2.24,EC,1687991145
37,walvis bay,-22.9575,14.5053,285.68,76,0,5.66,NA,1687991178
38,ushuaia,-54.8,-68.3,269.96,80,20,1.54,AR,1687990891
39,mount isa,-20.7333,139.5,290.02,77,75,6.69,AU,1687991222
40,west island,-12.1568,96.8225,299.14,73,40,4.63,CC,1687991107
41,viedma,-40.8135,-62.9967,279.88,70,37,2.05,AR,1687991222
42,bikenibeu village,1.3673,173.1241,299.13,94,100,4.12,KI,1687991307
43,ghat,24.9647,10.1728,307.08,13,67,2.18,LY,1687991308
44,muroto-misakicho,33.2833,134.15,297.91,88,99,3.73,JP,1687991308
45,rabo de peixe,37.8,-25.5833,293.88,83,20,6.69,PT,1687991146
46,palmer,42.1584,-72.3287,297.64,83,75,0.0,US,1687991160
47,port mathurin,-19.6833,63.4167,296.79,62,9,6.17,MU,1687991115
48,kerikeri,-35.2268,173.9474,286.99,88,61,0.89,NZ,1687991210
49,lavrio,37.7145,24.0565,301.61,76,0,2.72,GR,1687991309
50,petropavlovsk-kamchatsky,53.0452,158.6483,287.48,82,75,3.0,RU,1687990924
51,blackmans bay,-43.0167,147.3167,279.0,82,95,3.21,AU,1687991111
52,tindouf,27.6711,-8.1474,311.4,9,46,6.17,DZ,1687991188
53,kilindoni,-7.9139,39.6668,298.67,71,42,7.29,TZ,1687991310
54,qaqortoq,60.7167,-46.0333,279.21,88,100,0.37,GL,1687991121
55,cockburn town,21.4612,-71.1419,301.54,73,7,5.66,TC,1687991166
56,pemangkat,1.1667,108.9667,299.06,85,62,2.92,ID,1687991311
57,port elizabeth,-33.918,25.5701,287.77,79,0,2.06,ZA,1687991130
58,st. john's,47.5649,-52.7093,295.81,87,75,6.17,CA,1687991126
59,nova vicosa,-17.8919,-39.3719,295.57,83,0,2.73,BR,1687991311
60,piste,20.7,-88.5833,305.18,62,100,1.54,MX,1687991311
61,ar ruways,24.1103,52.7306,303.7,71,100,3.27,AE,1687991168
62,uyuni,-20.4597,-66.825,277.64,23,0,2.38,BO,1687991312
63,morehead city,34.7229,-76.726,302.61,66,75,3.6,US,1687991312
64,marsa alam,25.0757,34.8918,304.26,36,2,4.09,EG,1687991312
65,tamanrasset,22.785,5.5228,304.1,12,75,2.06,DZ,1687991175
66,fale old settlement,-9.3852,-171.2468,301.88,71,100,7.01,TK,1687991157
67,wailua homesteads,22.0669,-159.378,301.59,82,75,6.69,US,1687991117
68,san patricio,28.017,-97.5169,309.55,50,0,7.86,US,1687991155
69,kirakira,-10.4544,161.9205,299.73,83,96,3.97,SB,1687991183
70,formosa do rio preto,-11.0483,-45.1931,297.03,43,4,1.62,BR,1687991314
71,port saint john's,-31.6229,29.5448,290.95,85,52,3.48,ZA,1687991213
72,jamestown,42.097,-79.2353,294.83,68,20,2.57,US,1687991282
73,chonchi,-42.6128,-73.8092,280.44,93,100,0.86,CL,1687991141
74,patong,7.8961,98.2966,302.05,99,99,5.62,TH,1687991315
75,humaita,-7.5061,-63.0208,301.0,58,27,1.17,BR,1687991045
76,kodiak,57.79,-152.4072,283.88,87,100,4.12,US,1687991133
77,kone,-21.0595,164.8658,294.37,56,6,0.39,NC,1687991151
78,aykhal,66.0,111.5,286.12,47,100,4.88,RU,1687991179
79,albany,42.6001,-73.9662,295.47,76,69,4.62,US,1687991134
80,bontang,0.1333,117.5,297.73,90,92,2.26,ID,1687991316
81,tual,-5.6667,132.75,299.93,84,90,8.07,ID,1687991203
82,taoudenni,22.6783,-3.9836,312.78,13,33,5.45,ML,1687991159
83,aron,24.3833,77.4167,299.21,82,100,4.86,IN,1687991310
84,vieira de leiria,39.8695,-8.9324,292.76,92,75,4.12,PT,1687991317
85,vorgashor,67.5833,63.95,278.05,69,14,2.6,RU,1687991317
86,nakhon phanom,17.3333,104.4167,300.04,86,81,1.67,TH,1687991317
87,krasnovishersk,60.4078,57.082,281.43,96,13,1.63,RU,1687991214
88,geraldton,-28.7667,114.6,280.38,76,0,3.09,AU,1687991209
89,lexington,37.9887,-84.4777,302.15,53,0,1.54,US,1687991127
90,hermanus,-34.4187,19.2345,285.93,79,15,3.94,ZA,1687991112
91,atafu village,-8.5421,-172.5159,301.99,75,80,7.71,TK,1687991129
92,meadow lake,34.8014,-106.5436,307.83,17,81,6.13,US,1687991319
93,invercargill,-46.4,168.35,282.32,83,86,3.47,NZ,1687991103
94,afif,23.9065,42.9172,304.25,11,57,1.02,SA,1687991319
95,marshfield,44.6689,-90.1718,301.17,44,100,6.69,US,1687991212
96,rumphi,-11.0186,33.8575,286.44,73,65,1.98,MW,1687991320
97,malango,-2.9627,119.9001,292.12,97,96,1.0,ID,1687991320
98,hamilton,39.1834,-84.5333,302.6,54,0,4.12,US,1687991320
99,stanley,54.868,-1.6985,287.48,89,0,2.57,GB,1687991113
100,tiksi,71.6872,128.8694,282.2,85,94,1.9,RU,1687991113
101,whitehorse,60.7161,-135.0538,298.72,31,75,5.14,CA,1687991024
102,zehlendorf,52.7838,13.3878,291.4,87,9,0.94,DE,1687991321
103,keflavik,64.0049,-22.5624,282.1,87,100,11.83,IS,1687991159
104,saynshand,44.8824,110.1163,292.74,23,57,1.75,MN,1687991214
105,saipan,15.1355,145.701,302.4,100,40,4.12,MP,1687991219
106,villa mercedes,-33.6757,-65.4578,284.14,30,100,6.18,AR,1687991322
107,georgetown,5.4112,100.3354,300.11,87,20,0.0,MY,1687990909
108,sitka,57.0531,-135.33,288.09,82,100,5.14,US,1687991162
109,mejit,10.2753,170.8646,300.91,77,100,8.91,MH,1687991236
110,punta arenas,-53.15,-70.9167,275.21,93,100,6.17,CL,1687991010
111,tabou,4.423,-7.3528,297.56,82,79,3.41,CI,1687991323
112,taroa,8.7058,171.2275,301.43,76,100,7.61,MH,1687991323
113,colonia,50.9333,6.95,294.23,70,0,1.54,DE,1687991247
114,ribeira grande,38.5167,-28.7,296.36,71,96,8.49,PT,1687990926
115,mawlaik,23.6333,94.4167,298.62,91,43,0.35,MM,1687991324
116,barcelos,41.5388,-8.6151,297.55,76,0,3.32,PT,1687991324
117,crane,31.3974,-102.3501,312.61,10,1,10.53,US,1687991324
118,nili,33.7218,66.1302,293.3,24,0,3.65,AF,1687991325
119,karratha,-20.7377,116.8463,287.35,52,0,6.82,AU,1687991188
120,aleksandrovsk-sakhalinskiy,50.8975,142.1561,286.95,87,71,2.93,RU,1687991148
121,lazaro cardenas,17.9583,-102.2,304.25,62,48,4.3,MX,1687991116
122,papatowai,-46.5619,169.4708,282.2,87,100,6.02,NZ,1687991110
123,anadyr,64.75,177.4833,283.43,87,75,3.0,RU,1687991130
124,sang-e charak,35.8497,66.4369,293.12,34,0,2.03,AF,1687991326
125,sterling,39.0062,-77.4286,299.63,60,40,6.71,US,1687991326
126,santa cruz,-17.8,-63.1667,296.18,83,75,5.14,BO,1687991258
127,aasiaat,68.7098,-52.8699,276.24,83,83,2.57,GL,1687991165
128,polyarnyy,69.1989,33.4478,281.08,83,17,3.9,RU,1687991121
129,kaihua,23.3687,104.28,293.52,87,100,2.61,CN,1687991327
130,sodankyla,67.4167,26.6,287.66,83,71,1.31,FI,1687991328
131,leh,34.1667,77.5833,287.86,58,82,2.93,IN,1687991329
132,uturoa,-16.7333,-151.4333,300.12,70,2,7.56,PF,1687991137
133,oranjemund,-28.55,16.4333,287.16,93,50,4.77,NA,1687991329
134,mount pearl,47.5166,-52.7813,295.34,87,75,6.17,CA,1687991060
135,sitangkai,4.6628,119.3928,301.78,75,99,3.81,PH,1687991329
136,fada,9.5667,8.3,292.9,96,45,1.65,NG,1687991330
137,malaba,0.6346,34.2756,291.95,83,21,2.06,KE,1687991330
138,nar'yan-mar,67.6713,53.087,280.08,73,100,0.99,RU,1687991240
139,rongelap,11.1635,166.8941,301.02,82,97,9.27,MH,1687991194
140,lebu,-37.6167,-73.65,282.8,80,100,4.26,CL,1687991245
141,lorengau,-2.0226,147.2712,299.52,82,91,1.49,PG,1687991207
142,canutama,-6.5339,-64.3831,300.49,65,100,1.0,BR,1687991331
143,emerald,-23.5333,148.1667,291.12,65,100,2.92,AU,1687991185
144,scheveningen,52.1046,4.2756,293.68,79,100,1.79,NL,1687991332
145,koropi,37.8989,23.8718,300.78,52,0,0.0,GR,1687991332
146,afaahiti,-17.75,-149.2833,300.08,81,35,8.9,PF,1687991115
147,alesund,62.4723,6.1549,289.76,89,100,3.09,NO,1687991332
148,tweed heads,-28.1817,153.547,291.17,63,100,3.09,AU,1687991333
149,northam,51.0333,-4.2167,289.48,93,83,4.1,GB,1687991139
150,hasaki,35.7333,140.8333,299.42,90,71,1.59,JP,1687991333
151,smithers,54.7804,-127.1743,298.33,38,75,3.09,CA,1687991197
152,mahina,-17.5065,-149.489,301.02,74,40,3.09,PF,1687991157
153,la'ie,21.6477,-157.9253,302.81,67,3,1.79,US,1687991157
154,xianning,29.8833,114.2167,299.57,84,100,2.54,CN,1687991334
155,ocampo,21.65,-101.5,300.83,15,4,6.81,MX,1687991334
156,back mountain,41.3359,-75.9963,294.51,92,98,3.19,US,1687991334
157,salalah,17.0151,54.0924,301.2,89,100,3.09,OM,1687991335
158,puerto santa,-8.9906,-78.6456,295.42,75,4,5.57,PE,1687991190
159,yellowknife,62.456,-114.3525,301.44,34,40,4.12,CA,1687991134
160,lompoc,34.6391,-120.4579,297.98,78,100,6.17,US,1687991055
161,codrington,-38.2667,141.9667,282.03,83,99,4.74,AU,1687991194
162,challapata,-18.9,-66.7667,281.0,16,0,0.59,BO,1687991336
163,ust-nera,64.5667,143.2,295.53,60,2,2.1,RU,1687991180
164,chibougamau,49.9168,-74.3659,292.94,64,75,4.12,CA,1687991336
165,margaret river,-33.95,115.0667,283.64,77,100,2.51,AU,1687991147
166,erdenet,49.0333,104.0833,282.97,67,32,1.5,MN,1687991337
167,gadzhiyevo,69.2551,33.3362,280.76,83,15,3.95,RU,1687991238
168,prince rupert,54.3161,-130.3201,290.2,84,100,9.26,CA,1687991246
169,bayramaly,37.6185,62.1671,300.01,17,0,5.34,TM,1687991337
170,boende,-0.2167,20.8667,295.81,97,78,1.51,CD,1687991338
171,tsiombe,-25.3,45.4833,290.19,91,3,2.17,MG,1687991144
172,queenstown,-31.8976,26.8753,282.59,71,91,3.07,ZA,1687991338
173,arkhangel'sk,64.5401,40.5433,282.17,71,47,1.55,RU,1687991153
174,portland,45.5234,-122.6762,304.55,42,20,2.57,US,1687991074
175,nemuro,43.3236,145.575,286.38,99,100,2.98,JP,1687991233
176,bandon,51.7469,-8.7425,286.92,89,4,2.55,IE,1687991339
177,happy valley-goose bay,53.3168,-60.3315,297.32,60,75,10.8,CA,1687991156
178,banda aceh,5.5577,95.3222,299.94,79,97,4.28,ID,1687991123
179,howrah,22.5892,88.3103,300.15,89,75,1.54,IN,1687991340
180,utrik,11.2278,169.8474,301.16,76,100,8.57,MH,1687991128
181,mar del plata,-38.0023,-57.5575,283.12,75,20,6.71,AR,1687991213
182,buka,40.8108,69.1986,292.53,25,28,1.69,UZ,1687991173
183,port isabel,26.0734,-97.2086,309.2,43,0,8.75,US,1687991341
184,huskvarna,57.786,14.3021,291.15,77,0,3.09,SE,1687991341
185,avarua,-21.2078,-159.775,300.18,89,5,3.09,CK,1687991044
186,araucaria,-25.5931,-49.4103,292.31,78,0,1.03,BR,1687991342
187,vila franca do campo,37.7167,-25.4333,294.38,89,81,5.91,PT,1687991342
188,isangel,-19.55,169.2667,298.21,65,40,0.0,VU,1687990968
189,birzebbuga,35.8258,14.5269,297.68,88,20,4.12,MT,1687991342
190,kapuskasing,49.4169,-82.4331,296.2,25,75,1.03,CA,1687991115
191,port alfred,-33.5906,26.891,290.37,59,47,3.79,ZA,1687991198
192,lihue,21.9789,-159.3672,301.92,76,75,6.69,US,1687991144
193,colonia menno,-22.3667,-59.8167,297.4,49,8,5.14,PY,1687991343
194,sungai penuh,-2.0833,101.3833,290.54,97,65,0.87,ID,1687991343
195,bay roberts,47.5999,-53.2648,296.01,91,78,0.45,CA,1687991344
196,batouri,4.4333,14.3667,293.08,99,99,0.54,CM,1687991344
197,selkirk,50.1436,-96.8845,299.87,71,68,2.21,CA,1687991344
198,namtsy,62.7161,129.6658,294.0,83,32,1.01,RU,1687991344
199,kidal,18.4411,1.4078,309.63,22,13,5.24,ML,1687991179
200,kavaratti,10.5669,72.642,301.35,75,100,7.52,IN,1687991166
201,kourou,5.1552,-52.6478,298.18,86,29,2.27,GF,1687991345
202,masterton,-40.9597,175.6575,284.75,84,56,1.04,NZ,1687991148
203,yulinshi,38.2906,109.7494,294.53,37,72,2.01,CN,1687991250
204,inirida,3.8653,-67.9239,299.98,81,65,0.82,CO,1687991346
205,san fernando,15.0286,120.6898,301.0,91,100,0.4,PH,1687991161
206,hinis,39.3606,41.7022,289.07,58,2,1.86,TR,1687991346
207,maues,-3.3836,-57.7186,300.0,60,98,1.1,BR,1687991201
208,campo formoso,-10.5075,-40.3214,294.12,72,11,3.13,BR,1687991347
209,tobruk,32.0836,23.9764,296.53,86,0,5.0,LY,1687991257
210,college,64.8569,-147.8028,294.93,60,100,2.06,US,1687991138
211,cardenas,23.0375,-81.2047,304.57,64,2,4.79,CU,1687991347
212,minatitlan,17.9833,-94.5167,301.2,89,75,5.14,MX,1687991348
213,shunyi,40.125,116.6453,295.12,83,0,3.0,CN,1687991348
214,conceicao da barra,-18.5933,-39.7322,294.91,84,2,2.12,BR,1687991284
215,antofagasta,-23.65,-70.4,290.75,77,0,1.6,CL,1687990967
216,udachny,66.4167,112.4,285.07,53,99,6.72,RU,1687991058
217,thinadhoo,0.5333,72.9333,300.48,65,66,1.24,MV,1687991212
218,bamboo flat,11.7,92.7167,298.2,88,40,1.03,IN,1687991349
219,mil'kovo,55.6078,37.7956,288.48,99,100,2.0,RU,1687991163
220,alice springs,-23.7,133.8833,281.9,100,100,3.09,AU,1687991349
221,asosa,10.0667,34.5333,290.01,95,100,4.06,ET,1687991350
222,copiapo,-27.3667,-70.3333,285.98,48,0,0.86,CL,1687991337
223,hithadhoo,-0.6,73.0833,300.74,61,83,1.17,MV,1687991111
224,pierre,44.3683,-100.351,302.51,45,0,4.12,US,1687991350
225,jamsankoski,61.919,25.1701,289.42,93,95,0.92,FI,1687991351
226,callao,-12.0667,-77.15,297.44,68,0,5.14,PE,1687991350
227,tocopilla,-22.092,-70.1979,291.33,70,5,2.85,CL,1687991119
228,mugia,43.1041,-9.2179,292.54,86,1,5.62,ES,1687991351
229,luderitz,-26.6481,15.1594,286.97,90,99,1.38,NA,1687991167
230,mhlume,-26.0333,31.85,292.06,89,0,1.29,SZ,1687991352
231,vernon,50.2581,-119.2691,306.89,25,15,1.03,CA,1687991111
232,al wajh,26.2455,36.4525,301.12,78,0,3.6,SA,1687991352
233,velingrad,42.0272,23.9957,285.86,99,99,1.34,BG,1687991353
234,senanga,-16.1167,23.2667,289.12,38,13,2.33,ZM,1687991255
235,kruisfontein,-34.0033,24.7314,284.75,53,100,3.48,ZA,1687991353
236,dapa,9.7594,126.0531,300.93,76,50,1.39,PH,1687991353
237,east london,-33.0153,27.9116,289.41,74,36,2.63,ZA,1687990990
238,ngaruawahia,-37.6674,175.1555,287.27,80,15,7.15,NZ,1687991354
239,carnarvon,-24.8667,113.6333,285.82,52,0,7.88,AU,1687991179
240,desaguadero,-16.5656,-69.0417,282.91,27,0,3.85,PE,1687991354
241,sainte-rose,16.3324,-61.6979,300.17,83,75,2.06,GP,1687991354
242,gizo,-8.103,156.8419,300.59,83,100,6.95,SB,1687991355
243,ta`u,-14.2336,-169.5144,300.22,77,63,1.62,AS,1687991185
244,akureyri,65.6835,-18.0878,283.11,71,75,6.17,IS,1687991355
245,camayenne,9.535,-13.6878,300.2,89,75,5.14,GN,1687991355
246,uvira,-3.4067,29.1458,296.93,75,58,1.31,CD,1687991356
247,ichinohe,40.2069,141.3017,293.46,97,100,1.55,JP,1687991356
248,ilulissat,69.2167,-51.1,281.16,71,19,1.03,GL,1687991121
249,fuqing,25.725,119.3794,301.02,85,98,1.91,CN,1687991357
250,brookings,44.3114,-96.7984,300.99,62,75,4.63,US,1687991357
251,matai,-8.3,31.5167,289.78,63,99,1.71,TZ,1687991357
252,phuthaditjhaba,-28.5242,28.8158,280.66,87,98,1.19,ZA,1687991357
253,ghadamis,30.1337,9.5007,304.4,15,71,4.96,LY,1687991357
254,iskateley,67.6803,53.1512,280.0,73,100,0.91,RU,1687991141
255,papao,-17.75,-149.55,300.97,79,5,9.59,PF,1687991251
256,yamethin,20.4333,96.15,298.67,82,41,2.36,MM,1687991358
257,strezhevoy,60.7333,77.5889,285.37,79,98,5.08,RU,1687991358
258,obo,5.3998,26.4869,294.42,86,74,1.59,CF,1687991359
259,port lincoln,-34.7333,135.8667,284.61,72,100,3.9,AU,1687991123
260,libreville,0.3925,9.4537,298.16,78,75,3.09,GA,1687991359
261,kailua-kona,19.6406,-155.9956,301.64,71,100,2.57,US,1687991110
262,bogandinskiy,56.8937,65.8938,287.33,80,84,2.83,RU,1687991359
263,siquijor,9.2142,123.515,298.1,75,100,1.67,PH,1687991360
264,coahuayana de hidalgo,18.7,-103.6583,304.46,65,56,3.39,MX,1687991360
265,petra,30.3222,35.4793,292.2,49,0,2.96,JO,1687991360
266,grand falls-windsor,48.9332,-55.6649,294.22,88,91,6.43,CA,1687991202
267,grange,-34.9,138.4833,282.56,91,40,2.57,AU,1687991361
268,ciudad lazaro cardenas,17.9583,-102.2,304.25,62,48,4.3,MX,1687991317
269,cabo san lucas,22.8909,-109.9124,308.49,46,0,8.23,MX,1687991090
270,kharhial,20.2833,82.7667,299.63,81,100,2.16,IN,1687991362
271,cascais,38.6979,-9.4215,295.07,75,20,15.65,PT,1687991362
272,melfort,52.8667,-104.6177,294.22,52,66,3.09,CA,1687991362
273,jerseyville,39.12,-90.3285,306.89,43,84,6.07,US,1687991363
274,longyearbyen,78.2186,15.6401,280.06,87,100,3.6,SJ,1687991129
275,baukau,51.5526,7.2042,294.21,67,100,4.92,DE,1687991363
276,igarka,67.4667,86.5833,284.9,61,90,2.84,RU,1687991363
277,kalmunai,7.4167,81.8167,299.45,82,74,3.24,LK,1687991237
278,trogir,43.5125,16.2517,294.18,49,0,2.57,HR,1687991364
279,kapoeta,4.7717,33.5903,299.36,53,95,1.72,SS,1687991364
280,saraykent,39.6936,35.5111,290.22,73,44,0.93,TR,1687991364
281,maysville,38.6412,-83.7444,301.16,47,0,0.0,US,1687991210
282,kenai,60.5544,-151.2583,288.16,85,100,4.12,US,1687991365
283,vilyuysk,63.7553,121.6247,296.57,66,99,1.54,RU,1687991175
284,dzhambeyty,50.2536,52.595,291.22,49,55,4.28,KZ,1687991365
285,gambela,8.25,34.5833,297.31,79,100,1.2,ET,1687991365
286,pisco,-13.7,-76.2167,294.18,68,0,3.09,PE,1687991178
287,rio gallegos,-51.6226,-69.2181,275.18,100,75,2.06,AR,1687991088
288,khabarovsk,48.4808,135.0928,296.04,68,0,3.13,RU,1687991366
289,miri,4.4148,114.0089,299.23,89,20,3.09,MY,1687991366
290,kalinovskaya,43.5758,45.5192,294.75,57,36,0.16,RU,1687991367
291,mazagao,-0.115,-51.2894,299.18,91,46,1.46,BR,1687991367
292,la passe,45.5549,-0.8967,294.25,74,39,4.46,FR,1687991231
293,ouesso,1.6136,16.0517,295.62,96,100,1.03,CG,1687991367
294,plymouth,41.8334,-70.8328,299.05,81,20,3.09,US,1687991367
295,revda,56.801,59.9303,285.88,86,65,2.33,RU,1687991368
296,dudinka,69.4058,86.1778,284.61,67,20,3.58,RU,1687991111
297,skive,56.5667,9.0333,290.46,94,96,0.45,DK,1687991368
298,jinxiang,27.4327,120.6062,299.37,87,88,1.95,CN,1687991368
299,puerto lempira,15.2667,-83.7667,301.23,78,40,2.57,HN,1687991369
300,kuanda,56.3161,116.0806,287.17,91,100,0.59,RU,1687991369
301,constantia,44.1833,28.65,287.53,86,100,4.04,RO,1687991118
302,namibe,-15.1961,12.1522,289.79,67,73,2.25,AO,1687991215
303,sijunjung,-0.6876,100.9537,294.92,99,79,0.64,ID,1687991370
304,igrim,63.1906,64.4162,279.54,95,84,2.72,RU,1687991217
305,tofol,5.3248,163.0078,302.03,79,100,5.14,FM,1687991370
306,okha,53.5739,142.9478,282.61,90,100,4.36,RU,1687991240
307,lubuklinggau,-3.3,102.8667,295.52,99,38,0.68,ID,1687991371
308,westport,41.1415,-73.3579,299.23,74,75,2.24,US,1687991354
309,cannonvale,-20.2833,148.7,294.81,78,15,2.79,AU,1687991371
310,shamli,29.45,77.3167,303.13,65,83,2.27,IN,1687991371
311,la sarre,48.8002,-79.1996,295.29,36,3,2.69,CA,1687991371
312,la gi,10.6667,107.7833,299.17,88,93,2.13,VN,1687991372
313,luanda,-8.8368,13.2343,295.15,78,75,1.54,AO,1687991372
314,dhuusamarreeb,5.535,46.3861,297.23,73,83,9.58,SO,1687991372
315,griffith,41.5284,-87.4237,302.67,44,40,4.63,US,1687991372
316,zmiyevka,52.6697,36.3739,285.29,94,100,3.1,RU,1687991373
317,tazacorte,28.629,-17.9293,299.9,72,0,2.57,ES,1687991373
318,peniche,39.3558,-9.3811,293.87,90,0,9.91,PT,1687991228
319,tarauaca,-8.1614,-70.7656,299.15,84,83,1.26,BR,1687991373
320,surgut,61.25,73.4167,286.25,93,0,3.13,RU,1687991374
321,saudarkrokur,65.7461,-19.6394,280.76,91,100,1.18,IS,1687991374
322,cam ranh,11.9214,109.1591,302.13,70,20,0.0,VN,1687991374
323,cruzeiro do sul,-29.5128,-51.9853,288.44,92,100,2.2,BR,1687991374
324,lengshuitan,26.4111,111.5956,297.87,87,52,2.68,CN,1687991374
325,labasa,-16.4167,179.3833,298.53,64,18,0.97,FJ,1687991375
326,palangkaraya,-2.2,113.8333,296.42,96,69,0.91,ID,1687991375
327,tbeng meanchey,13.8167,104.9667,297.28,92,72,1.07,KH,1687991375
328,karaton,-6.3424,106.1045,295.66,95,91,1.3,ID,1687991375
329,linqu,36.5156,118.5397,297.77,86,100,1.72,CN,1687991376
330,timbiqui,2.7717,-77.6654,300.89,79,92,1.41,CO,1687991376
331,kodinsk,58.6881,99.1844,285.49,74,0,1.08,RU,1687991376
332,novaya igirma,57.1334,103.9112,284.37,75,100,0.95,RU,1687991376
333,egilsstadir,65.2653,-14.3948,284.1,87,75,4.63,IS,1687991209
334,ouadda,8.0777,22.4007,293.92,95,62,0.91,CF,1687991378
335,island harbour,50.724,-1.2758,292.68,89,75,1.79,GB,1687991378
336,mount gambier,-37.8333,140.7667,282.05,74,100,3.33,AU,1687991176
337,vysokiy,58.35,60.05,284.66,95,89,1.95,RU,1687991379
338,ilha solteira,-20.4328,-51.3425,295.13,49,0,1.84,BR,1687991379
339,novodvinsk,64.4165,40.8122,281.95,70,46,1.55,RU,1687991379
340,yeppoon,-23.1333,150.7333,291.03,61,20,2.31,AU,1687991379
341,uttarkashi,30.7333,78.45,296.49,87,93,0.86,IN,1687991380
342,vadso,70.0744,29.7487,281.64,81,100,3.6,NO,1687991165
343,sao joao da barra,-21.6403,-41.0511,296.2,87,0,6.19,BR,1687991043
344,kanniyakumari,8.0833,77.5667,299.63,81,40,7.68,IN,1687991380
345,benghazi,32.1167,20.0667,297.35,78,0,2.62,LY,1687991039
346,oriximina,-1.7656,-55.8661,301.28,59,92,1.51,BR,1687991240
347,zhaotong,27.3167,103.7167,291.17,96,100,1.91,CN,1687991381
348,sisimiut,66.9395,-53.6735,279.23,84,100,4.69,GL,1687991191
349,horki,54.2861,30.9842,283.58,97,84,2.41,BY,1687991381
350,kingston,17.997,-76.7936,304.68,80,40,2.06,JM,1687990907
351,arteche,12.2645,125.4048,298.37,91,81,1.64,PH,1687991382
352,nova sintra,14.8667,-24.7167,294.27,82,6,8.34,CV,1687991130
353,ceerigaabo,10.6162,47.368,291.36,71,82,8.54,SO,1687991382
354,khandyga,62.6667,135.6,296.29,70,77,1.91,RU,1687991382
355,cadale,2.7603,46.3222,298.34,81,81,7.97,SO,1687991383
356,bangkalan,-7.0455,112.7351,298.12,86,42,1.6,ID,1687991383
357,pasighat,28.0667,95.3333,298.29,93,100,0.71,IN,1687991383
358,ajdabiya,30.7554,20.2263,296.71,75,0,3.77,LY,1687991383
359,klyuchi,52.2667,79.1667,287.88,71,99,7.09,RU,1687991116
360,sumbe,-11.2061,13.8437,292.3,89,76,3.06,AO,1687991384
361,haflong,25.1833,93.0333,296.06,98,94,1.29,IN,1687991384
362,ugoofaaru,5.6667,73.0,301.14,75,9,5.45,MV,1687991384
363,broome,42.2506,-75.833,291.32,91,100,3.6,US,1687991385
364,bollnas,61.3482,16.3946,287.41,89,45,1.16,SE,1687991385
365,parras de la fuente,25.4167,-102.1833,306.42,13,2,5.97,MX,1687991385
366,brisas de zicatela,15.8369,-97.0419,297.44,78,100,2.57,MX,1687991155
367,minas de marcona,-15.2119,-75.1103,289.63,64,0,4.94,PE,1687991170
368,tura,25.5198,90.2201,296.33,98,97,3.15,IN,1687991135
369,sharlyk,52.9167,54.75,287.3,68,55,1.44,RU,1687991386
370,vecpiebalga,57.0599,25.8127,286.09,93,99,1.95,LV,1687991386
371,xilin hot,43.9667,116.0333,287.21,63,0,1.8,CN,1687991386
372,hilo,19.7297,-155.09,301.62,72,75,6.69,US,1687991072
373,maragogi,-9.0122,-35.2225,297.35,86,37,3.63,BR,1687991387
374,olinda,-8.0089,-34.8553,299.0,83,75,2.57,BR,1687991315
375,gounou gaya,9.6294,15.5132,298.23,84,96,3.6,TD,1687991387
376,flin flon,54.7682,-101.865,292.06,77,75,3.09,CA,1687991388
377,usinsk,65.9939,57.5281,281.7,66,100,4.4,RU,1687991388
378,moyale,3.5167,39.0584,294.24,69,99,4.88,KE,1687991388
379,cidreira,-30.1811,-50.2056,288.24,85,100,4.83,BR,1687991153
380,arraial do cabo,-22.9661,-42.0278,292.13,94,0,0.0,BR,1687991389
381,new norfolk,-42.7826,147.0587,279.66,80,100,2.56,AU,1687991192
382,berezovyy,51.6667,135.7,294.38,66,89,1.28,RU,1687991131
383,guerrero negro,27.9769,-114.0611,294.48,61,7,8.4,MX,1687991127
384,hard bargain,26.3167,-77.5667,301.54,72,0,2.49,BS,1687991389
385,kudahuvadhoo,2.6708,72.8944,300.61,72,95,3.65,MV,1687991196
386,cankuzo,-3.1333,30.5833,291.72,62,71,0.81,BI,1687991390
387,castillos,-34.1667,-53.8333,282.13,64,0,3.41,UY,1687991390
388,aracuai,-16.8497,-42.0703,296.1,59,59,2.29,BR,1687991390
389,shchigry,51.8755,36.9043,287.05,92,100,3.33,RU,1687991391
390,flying fish cove,-10.4217,105.6791,296.97,78,75,4.63,CX,1687991391
391,taltal,-25.4,-70.4833,289.44,80,24,1.87,CL,1687991201
392,yuzhno-kurilsk,44.0306,145.8556,287.58,98,100,1.1,RU,1687991201
393,kolokani,13.5728,-8.0339,302.46,50,32,2.72,ML,1687991392
394,nuuk,64.1835,-51.7216,280.49,65,75,5.66,GL,1687991156
395,regina,50.4501,-104.6178,299.21,40,20,7.72,CA,1687991315
396,suwayr,30.1171,40.3893,300.67,16,0,3.97,SA,1687991393
397,bella union,-30.2752,-57.6007,285.42,61,2,3.5,UY,1687991393
398,ahmetli,38.5196,27.9387,297.08,38,0,1.32,TR,1687991393
399,gladenbach,50.7667,8.5667,291.32,79,87,0.59,DE,1687991393
400,nova borova,50.693,28.6345,285.82,91,100,7.27,UA,1687991393
401,kharovsk,59.9642,40.1912,287.43,86,100,1.09,RU,1687991394
402,great bend,38.3645,-98.7648,310.95,38,0,4.63,US,1687991113
403,tarakan,3.3,117.6333,297.87,100,40,1.03,ID,1687991394
404,dublyany,49.9041,24.0864,285.29,90,99,5.69,UA,1687991394
405,sao felix do xingu,-6.6447,-51.995,299.1,51,8,0.37,BR,1687991182
406,yeraliyev,43.2,51.65,298.36,45,23,5.48,KZ,1687991395
407,volkovysk,53.1561,24.4513,285.47,95,88,3.33,BY,1687991395
408,wellington,-41.2866,174.7756,284.59,94,59,2.57,NZ,1687991279
409,lewiston orchards,46.3804,-116.9754,303.99,37,20,2.06,US,1687991395
410,pont-sainte-marie,48.3185,4.0945,291.18,82,0,1.03,FR,1687991396
411,bardai,11.65,7.2333,298.5,68,48,4.33,NG,1687991153
412,ancud,-41.8697,-73.8203,280.4,85,100,1.25,CL,1687991160
413,tadine,-21.55,167.8833,294.89,58,50,3.14,NC,1687991396
414,noumea,-22.2763,166.4572,294.26,99,27,2.75,NC,1687991397
415,fort mcmurray,56.7268,-111.381,298.92,47,75,6.17,CA,1687991120
416,khanty-mansiysk,61.0042,69.0019,286.21,100,20,2.0,RU,1687991397
417,moose jaw,50.4001,-105.5344,299.3,34,20,7.2,CA,1687991397
418,tralee,52.2704,-9.7026,284.93,84,25,3.28,IE,1687991253
419,midvagur,62.0511,-7.1939,284.61,87,100,8.23,FO,1687991398
420,puerto leguizamo,-0.1934,-74.7819,296.37,96,90,0.98,CO,1687991398
421,les avirons,-21.2418,55.3394,291.18,72,75,4.12,RE,1687991398
422,san-pedro,4.7485,-6.6363,296.84,86,41,2.74,CI,1687991399
423,las tablas,7.7667,-80.2833,302.41,75,100,4.16,PA,1687991399
424,badger,64.8,-147.5333,294.89,58,75,2.06,US,1687991146
425,alofi,-19.0595,-169.9187,298.17,71,16,5.87,NU,1687991125
426,tazovsky,67.4667,78.7,281.92,80,96,3.56,RU,1687991152
427,saint-philippe,-21.3585,55.7679,291.92,77,27,4.86,RE,1687991127
428,pindushi,62.9152,34.58,286.43,80,72,1.41,RU,1687991401
429,santa rosa del sur,7.9644,-74.0544,297.44,96,80,0.73,CO,1687991402
430,tangi,34.3006,71.6536,300.15,70,0,1.63,PK,1687991403
431,shiqian,27.5225,108.2281,297.98,87,97,0.99,CN,1687991404
432,wurtulla,-26.7568,153.1256,291.03,72,100,1.79,AU,1687991405
433,la ligua,-32.4524,-71.2311,286.29,76,75,1.26,CL,1687991406
434,vila velha,-20.3297,-40.2925,296.12,88,0,2.57,BR,1687991026
435,aldan,58.6031,125.3894,295.63,59,8,1.72,RU,1687991407
436,labytnangi,66.6572,66.4183,278.87,70,39,2.67,RU,1687991146
437,pagar alam,-4.0167,103.2667,292.95,98,44,0.88,ID,1687991407
438,mineiros,-17.5694,-52.5511,293.4,45,0,2.04,BR,1687991407
439,chincha alta,-13.4099,-76.1323,293.48,85,10,1.83,PE,1687991408
440,pangkalanbuun,-2.6833,111.6167,296.4,97,21,0.89,ID,1687991408
441,burgkirchen an der alz,48.1667,12.7333,288.44,94,2,1.58,DE,1687991409
442,hami,42.8,93.45,300.57,15,0,4.32,CN,1687991238
443,sarupathar,26.1984,93.8094,297.06,97,100,1.49,IN,1687991409
444,pembroke,45.8168,-77.1162,294.14,58,78,2.12,CA,1687991411
445,caxito,-8.5785,13.6643,290.98,97,2,1.15,AO,1687991411
446,chadron,42.8294,-102.9999,302.01,39,0,1.54,US,1687991412
447,kencong,-8.2833,113.3667,296.67,90,80,0.87,ID,1687991412
448,cabedelo,-6.9811,-34.8339,297.52,87,14,5.89,BR,1687991212
449,theniet el had,35.8711,2.0281,297.24,24,66,1.44,DZ,1687991413
450,poso,-1.3959,120.7524,300.18,75,52,2.45,ID,1687991413
451,zakamensk,50.3741,103.2863,283.6,76,80,0.83,RU,1687991413
452,adigrat,14.277,39.462,289.85,62,52,1.09,ET,1687991414
453,deqing,30.5448,119.9599,302.17,78,100,1.84,CN,1687991414
454,adam,22.3756,57.5233,301.84,68,60,4.08,OM,1687991136
455,puerto baquerizo moreno,-0.9,-89.6,300.7,65,20,7.72,EC,1687991414
456,forde,61.4522,5.8572,290.56,83,98,0.89,NO,1687991253
457,troitsk,54.0979,61.5773,287.05,79,92,1.79,RU,1687991415
458,urengoy,65.9667,78.3667,284.46,84,100,3.45,RU,1687991415
459,san borja,-14.8167,-66.85,296.92,85,98,1.62,BO,1687991416
460,al wakrah,24.85,51.3333,302.2,28,100,3.1,QA,1687991416
461,shiraoi,42.55,141.35,294.25,94,100,0.91,JP,1687991416
462,tionk essil,12.7856,-16.5217,300.18,74,69,3.53,SN,1687991110
463,howard springs,-12.497,131.047,298.1,74,49,5.81,AU,1687991417
464,arrifes,37.7667,-25.7,293.29,83,20,6.69,PT,1687991418
465,neiafu,-18.65,-173.9833,299.53,69,40,3.09,TO,1687991418
466,haiku-pauwela,20.9219,-156.3051,303.16,59,40,10.29,US,1687991173
467,farafangana,-22.8167,47.8333,290.96,86,87,1.52,MG,1687991420
468,belle fourche,44.6714,-103.8522,299.31,49,6,4.57,US,1687991421
469,magistral'nyy,56.1725,107.4458,283.4,98,100,0.79,RU,1687991245
470,kolonia town,6.964,158.206,303.15,74,100,4.63,FM,1687991421
471,sabha,27.0377,14.4283,304.96,21,0,5.15,LY,1687991192
472,caleta de carquin,-11.0925,-77.6267,294.75,71,3,4.14,PE,1687991158
473,olyokminsk,60.3736,120.4264,294.61,74,94,2.76,RU,1687991154
474,lata,40.1629,-8.3327,293.66,92,0,1.36,PT,1687991109
475,bandarbeyla,9.4942,50.8122,298.73,75,74,13.75,SO,1687991426
476,intorsura buzaului,45.6833,26.0333,282.51,94,39,1.25,RO,1687991434
477,loudun,47.0079,0.083,293.25,70,53,1.36,FR,1687991435
478,palikir - national government center,6.9248,158.1611,302.56,74,100,4.63,FM,1687991436
479,sept-iles,50.2001,-66.3821,292.44,85,100,2.57,CA,1687991379
480,finspang,58.7058,15.7674,293.21,63,81,2.82,SE,1687991437
481,homer,59.6425,-151.5483,286.51,92,100,3.09,US,1687991172
482,bahir dar,11.5936,37.3908,290.15,90,82,1.43,ET,1687991159
483,lukolela,-1.0605,17.1821,296.28,84,82,1.23,CD,1687991438
484,kangding,30.0513,101.9603,290.88,90,100,0.49,CN,1687991438
485,kristiansund,63.1115,7.732,290.18,82,100,2.57,NO,1687991438
486,hobyo,5.3505,48.5268,298.12,85,99,11.71,SO,1687991147
487,ust-tsilma,65.441,52.1498,282.03,82,100,0.71,RU,1687991156
488,dikhil,11.5,42.1667,305.19,24,17,2.83,DJ,1687991439
489,moroto,2.5345,34.6666,294.29,59,56,5.03,UG,1687991439
490,ghanzi,-21.5667,21.7833,280.94,32,0,4.05,BW,1687991439
491,fairbanks,64.8378,-147.7164,295.15,59,75,2.06,US,1687991440
492,canico,32.6333,-16.85,298.55,72,20,6.17,PT,1687991440
493,belyy yar,53.6039,91.3903,287.09,94,0,2.0,RU,1687991440
494,togitsu,32.8333,129.85,300.14,83,75,8.75,JP,1687991440
495,paka,4.6374,103.4368,299.11,94,98,0.0,MY,1687991441
496,suntar,62.1444,117.6319,292.04,90,84,3.45,RU,1687991441
497,sandpoint,48.2766,-116.5533,304.18,41,74,1.34,US,1687991441
498,valderice,38.0401,12.6151,296.7,88,20,1.54,IT,1687991178
499,mudkhed,19.1667,77.5167,299.26,75,100,6.61,IN,1687991442
500,nuku'alofa,-21.1333,-175.2,298.34,61,20,4.12,TO,1687991442
501,ibshaway,29.358,30.6814,298.88,53,0,5.7,EG,1687991442
502,sejny,54.108,23.347,286.33,91,33,4.96,PL,1687991442
503,saldanha,-33.0117,17.9442,285.18,93,90,5.49,ZA,1687991443
504,lerwick,60.1545,-1.1494,285.15,86,61,5.07,GB,1687991443
505,loukhi,66.0764,33.0381,285.5,87,90,1.96,RU,1687991443
506,taulaga,-11.0553,-171.0883,301.8,74,40,7.46,AS,1687991443
507,argo,37.6333,22.7333,298.03,69,0,2.11,GR,1687991234
508,sydney,-33.8679,151.2073,283.88,78,20,8.75,AU,1687991387
509,souillac,-20.5167,57.5167,294.36,78,75,2.06,MU,1687991444
510,louisville,38.2542,-85.7594,303.13,56,20,2.06,US,1687991168
511,shingu,33.7333,135.9833,301.24,76,100,1.28,JP,1687991444
512,opuwo,-18.0607,13.84,282.59,25,1,2.75,NA,1687991171
513,keelung,25.1283,121.7419,303.74,81,83,1.01,TW,1687991133
514,codajas,-3.8367,-62.0569,300.82,62,82,1.1,BR,1687991445
515,yatou,37.15,122.3833,296.24,96,100,3.35,CN,1687991445
516,chinde,26.8418,88.0763,291.02,97,100,3.05,NP,1687991196
517,menzel kamel,35.6248,10.6673,299.84,78,40,2.06,TN,1687991446
518,galliano,29.4422,-90.2992,309.15,56,0,3.09,US,1687991154
519,san matias,-16.3667,-58.4,298.83,51,55,2.18,BO,1687991447
520,notse,6.95,1.1667,295.71,98,100,1.76,TG,1687991447
521,daru,-9.0763,143.2092,298.28,78,7,4.9,PG,1687991172
522,arauca,7.0847,-70.7591,299.15,94,40,1.03,CO,1687991258
523,fort bragg,35.139,-79.006,305.07,45,0,3.6,US,1687991104
524,kyabe,9.4515,18.9449,296.66,88,82,1.69,TD,1687991448
525,quellon,-43.1167,-73.6167,279.29,100,100,0.0,CL,1687991448
526,leava,-14.3,-178.1667,299.62,80,99,4.3,WF,1687991142
527,ixtapa,20.7,-105.2,305.5,66,40,5.66,MX,1687991449
528,uliastay,47.7417,96.8444,285.05,32,57,2.35,MN,1687991131
529,kayangel,8.0823,134.7173,301.45,73,98,1.43,PW,1687991233
530,juneau,58.3019,-134.4197,288.27,100,100,5.66,US,1687991192
531,zyryanovsk,49.7386,84.2719,284.1,92,77,0.72,KZ,1687991450
532,touros,-5.1989,-35.4608,297.42,92,11,5.4,BR,1687991256
533,kumbhraj,24.3667,77.05,299.64,83,100,2.92,IN,1687991450
534,protaras,35.0125,34.0583,298.14,97,0,1.34,CY,1687991450
535,sirjan,29.452,55.6814,300.84,40,25,4.0,IR,1687991451
536,toamasina,-18.1667,49.3833,291.15,94,75,1.03,MG,1687991331
537,kollegal,12.15,77.1167,295.52,83,100,4.2,IN,1687991451
538,enewetak,11.3474,162.3373,301.3,81,97,7.77,MH,1687991140
539,lionel town,17.8101,-77.2406,305.09,93,88,0.99,JM,1687991451
540,jabor,5.921,169.6434,299.48,90,100,8.73,MH,1687991452
541,isetskoye,56.4858,65.3226,284.81,92,68,3.64,RU,1687991452
542,bodaybo,57.8506,114.1933,287.74,76,100,0.63,RU,1687991452
543,erenhot,43.6475,111.9767,294.29,25,1,2.92,CN,1687991452
544,ulladulla,-35.35,150.4667,280.33,78,14,2.86,AU,1687991128
545,al matlin,37.2452,10.05,296.92,65,0,3.06,TN,1687991453
546,coquimbo,-29.9533,-71.3436,287.0,88,0,4.12,CL,1687990998
547,bac lieu,9.285,105.7244,298.97,91,96,2.36,VN,1687991453
548,nyagan,62.1406,65.3936,282.57,98,100,2.22,RU,1687991454
549,mahilyow,53.9139,30.3364,284.12,99,83,2.63,BY,1687991454
550,wynyard,-41.0,145.7167,280.92,79,73,2.98,AU,1687991454
551,nagqu,31.5,92.0,277.76,91,100,4.87,CN,1687991454
552,moranbah,-22.0016,148.0466,294.3,47,57,5.7,AU,1687991455
553,ulanhot,46.0833,122.0833,293.14,80,55,3.44,CN,1687991455
554,maceio,-9.6658,-35.7353,295.84,100,75,2.06,BR,1687991392
555,madison,34.7334,-86.5667,306.92,46,0,3.6,US,1687990691
556,qamdo,31.1667,97.2333,278.22,89,93,1.03,CN,1687991134
557,las trojes,14.0667,-85.9833,295.49,93,100,0.77,HN,1687991456
558,san clemente del tuyu,-36.3569,-56.7235,280.92,68,0,6.01,AR,1687991456
559,salahonda,2.1019,-78.7217,301.09,75,31,2.1,CO,1687991456
560,san pedro pochutla,15.7333,-96.4667,302.99,70,96,3.85,MX,1687991457
561,wanxian,30.8039,108.3897,298.13,98,100,0.8,CN,1687991457
562,ishigaki,24.3448,124.1572,301.22,94,75,5.14,JP,1687990846
563,mirabela,-16.2628,-44.1644,291.95,42,0,1.54,BR,1687991457
564,mili,6.0815,171.735,299.5,87,100,7.18,MH,1687991142
565,red hill,33.9996,-79.2581,305.25,49,74,0.92,US,1687991458
566,nadym,65.5333,72.5167,280.08,75,94,5.81,RU,1687991458
