City_ID,City,Lat,Lng,Max Temp,Humidity,Cloudiness,Wind Speed,Country,Date
0,tsiombe,-25.3,45.4833,21.20999999999998,67,65,7.19,MG,1688021690
1,blackmans bay,-43.0167,147.3167,8.220000000000027,90,100,5.9,AU,1688021691
2,bredasdorp,-34.5322,20.0403,12.990000000000009,80,90,6.86,ZA,1688021691
3,haapsalu,58.9431,23.5414,23.99000000000001,69,9,2.8,EE,1688021691
4,kerman,30.2832,57.0788,35.06999999999999,20,0,4.12,IR,1688021449
5,bethel,41.3712,-73.414,19.319999999999993,86,100,2.06,US,1688021581
6,port-aux-francais,-49.35,70.2167,2.519999999999982,95,100,12.18,TF,1688021692
7,tual,-5.6667,132.75,27.129999999999995,80,14,7.44,ID,1688021692
8,arai,37.0167,138.25,32.889999999999986,80,100,1.85,JP,1688021693
9,port alfred,-33.5906,26.891,14.689999999999998,80,75,3.13,ZA,1688021693
10,qaqortoq,60.7167,-46.0333,5.860000000000014,87,100,1.73,GL,1688021693
11,waitangi,-43.9535,-176.5597,12.269999999999982,94,100,3.58,NZ,1688021694
12,sur,22.5667,59.5289,35.31,51,100,1.68,OM,1688021694
13,edinburgh of the seven seas,-37.0676,-12.3116,15.839999999999975,93,100,10.52,SH,1688021694
14,bouarfa,32.53,-1.95,27.720000000000027,23,0,1.48,MA,1688021694
15,iqaluit,63.7506,-68.5145,3.0,81,75,4.63,CA,1688021695
16,cozumel,20.5083,-86.9458,25.120000000000005,92,7,3.52,MX,1688021449
17,alvaraes,-3.2208,-64.8042,24.29000000000002,82,92,0.99,BR,1688021695
18,sitka,57.0531,-135.33,13.089999999999975,76,75,9.26,US,1688021696
19,wellington,-41.2866,174.7756,9.95999999999998,86,59,2.06,NZ,1688021543
20,taybad,34.74,60.7756,35.5,13,0,9.39,IR,1688021697
21,thompson,55.7435,-97.8558,13.240000000000009,100,40,1.54,CA,1688021697
22,grytviken,-54.2811,-36.5092,-5.189999999999998,76,16,3.83,GS,1688021697
23,ko lanta,7.5336,99.0865,28.920000000000016,75,98,5.89,TH,1688021698
24,longyearbyen,78.2186,15.6401,7.060000000000002,81,75,2.57,SJ,1688021698
25,jamestown,42.097,-79.2353,14.920000000000016,86,0,1.54,US,1688021433
26,kone,-21.0595,164.8658,19.730000000000018,69,15,1.66,NC,1688021699
27,bolama,11.5833,-15.4667,25.339999999999975,82,100,1.55,GW,1688021699
28,chui,-33.6971,-53.4616,6.899999999999977,81,100,2.63,UY,1688021477
29,margaret river,-33.95,115.0667,14.519999999999982,57,60,1.29,AU,1688021700
30,barra de santo antonio,-9.4047,-35.5072,21.75,87,11,1.69,BR,1688021700
31,pechora,65.1472,57.2244,13.319999999999993,51,96,1.88,RU,1688021700
32,adamstown,-25.066,-130.1015,20.230000000000018,62,100,10.61,PN,1688021639
33,page,36.9147,-111.4558,27.029999999999973,13,0,4.12,US,1688021701
34,isafjordur,66.0755,-23.124,5.9599999999999795,91,100,3.39,IS,1688021701
35,bilibino,68.0546,166.4372,18.850000000000023,39,100,6.4,RU,1688021702
36,ploneour-lanvern,47.9,-4.2833,16.329999999999984,88,0,3.6,FR,1688021702
37,chimbote,-9.0853,-78.5783,20.99000000000001,82,74,3.86,PE,1688021702
38,ribeira grande,38.5167,-28.7,21.689999999999998,78,75,7.72,PT,1688021703
39,salmon arm,50.6998,-119.3024,21.769999999999982,64,68,1.03,CA,1688021703
40,puerto natales,-51.7236,-72.4875,-0.6100000000000136,96,100,1.02,CL,1688021703
41,tataouine,32.9297,10.4518,31.20999999999998,29,0,3.57,TN,1688021704
42,avarua,-21.2078,-159.775,24.180000000000007,100,0,2.06,CK,1688021704
43,nahorkatiya,27.2833,95.3333,30.069999999999993,85,100,2.41,IN,1688021704
44,el nido,11.1858,119.3956,27.310000000000002,82,100,2.77,PH,1688021705
45,kimberley,-28.7323,24.7623,6.980000000000018,93,75,2.57,ZA,1688021705
46,port arthur,38.8,121.2667,26.269999999999982,83,77,3.13,CN,1688021705
47,port elizabeth,-33.918,25.5701,15.199999999999989,71,0,3.09,ZA,1688021706
48,tyup,42.7276,78.3648,20.49000000000001,53,53,2.93,KG,1688021706
49,menton,43.7765,7.5044,26.19999999999999,85,100,3.79,FR,1688021706
50,sept-iles,50.2001,-66.3821,17.439999999999998,98,100,1.54,CA,1688021707
51,lihue,21.9789,-159.3672,26.730000000000018,84,75,6.69,US,1688021707
52,klyuchi,52.2667,79.1667,21.75999999999999,38,86,6.21,RU,1688021707
53,ushuaia,-54.8,-68.3,-0.040000000000020464,74,40,3.09,AR,1688021708
54,salinas,36.6777,-121.6555,13.800000000000011,90,100,3.6,US,1688021708
55,katsuren-haebaru,26.3369,127.8719,32.360000000000014,66,100,3.6,JP,1688021708
56,san antonio de pale,-1.4014,5.6325,24.819999999999993,76,100,6.28,GQ,1688021709
57,ribeira brava,32.65,-17.0667,25.55000000000001,51,0,0.35,PT,1688021709
58,badger,64.8,-147.5333,24.100000000000023,57,75,1.54,US,1688021709
59,altai,46.3722,96.2583,22.910000000000025,16,99,8.93,MN,1688021709
60,ar ruseris,11.8659,34.3869,30.069999999999993,51,98,5.96,SD,1688021710
61,camacupa,-12.0167,17.4833,16.80000000000001,39,0,2.28,AO,1688021710
62,san fernando de apure,7.8878,-67.4724,23.25999999999999,96,100,0.52,VE,1688021710
63,morondava,-20.2833,44.2833,24.089999999999975,39,0,2.32,MG,1688021711
64,sao gabriel da cachoeira,-0.1303,-67.0892,21.94999999999999,99,38,0.92,BR,1688021711
65,okha,53.5739,142.9478,11.879999999999995,86,32,4.96,RU,1688021711
66,formosa do rio preto,-11.0483,-45.1931,19.730000000000018,53,28,0.84,BR,1688021711
67,bamboo flat,11.7,92.7167,32.19999999999999,70,40,3.6,IN,1688021712
68,midvagur,62.0511,-7.1939,11.610000000000014,87,100,4.63,FO,1688021712
69,cherlak,54.155,74.8055,23.060000000000002,42,87,6.44,RU,1688021712
70,qamdo,31.1667,97.2333,18.5,32,28,0.81,CN,1688021713
71,invercargill,-46.4,168.35,7.339999999999975,87,57,4.2,NZ,1688021713
72,makinsk,52.6292,70.4169,22.44999999999999,39,92,6.39,KZ,1688021713
73,whitehorse,60.7161,-135.0538,16.579999999999984,48,75,5.66,CA,1688021714
74,vorgashor,67.5833,63.95,13.399999999999977,43,93,2.73,RU,1688021714
75,anadyr,64.75,177.4833,10.430000000000007,81,75,5.0,RU,1688021714
76,tazovsky,67.4667,78.7,14.399999999999977,57,100,3.07,RU,1688021715
77,yellowknife,62.456,-114.3525,20.45999999999998,64,40,2.57,CA,1688021716
78,greenville,35.6127,-77.3663,21.329999999999984,92,0,0.0,US,1688021510
79,west island,-12.1568,96.8225,27.139999999999986,61,40,8.23,CC,1688021716
80,utrik,11.2278,169.8474,28.220000000000027,78,100,6.98,MH,1688021716
81,albany,42.6001,-73.9662,17.379999999999995,87,100,2.02,US,1688021590
82,pitea,65.3172,21.4794,22.19999999999999,64,13,1.12,SE,1688021717
83,college,64.8569,-147.8028,24.139999999999986,55,75,1.54,US,1688021717
84,enewetak,11.3474,162.3373,28.430000000000007,83,90,7.99,MH,1688021717
85,ancud,-41.8697,-73.8203,7.3700000000000045,85,100,4.03,CL,1688021718
86,sisimiut,66.9395,-53.6735,3.9499999999999886,94,100,6.81,GL,1688021718
87,laojunmiao,39.8333,97.7333,28.980000000000018,11,0,4.42,CN,1688021718
88,uliastay,47.7417,96.8444,23.00999999999999,23,100,6.34,MN,1688021719
89,tidjikja,18.5564,-11.4271,30.269999999999982,37,4,7.58,MR,1688021719
90,wailua homesteads,22.0669,-159.378,26.389999999999986,88,75,6.69,US,1688021719
91,smithers,54.7804,-127.1743,15.329999999999984,82,100,2.06,CA,1688021711
92,bardai,11.65,7.2333,23.560000000000002,79,94,3.87,NG,1688021720
93,edgewater,28.9889,-80.9023,26.310000000000002,89,0,1.23,US,1688021720
94,oral,51.2333,51.3667,28.139999999999986,21,0,4.0,KZ,1688021720
95,st. john's,47.5649,-52.7093,20.810000000000002,94,100,3.6,CA,1688021483
96,masterton,-40.9597,175.6575,12.310000000000002,83,15,2.54,NZ,1688021721
97,tahoua,14.8888,5.2692,25.139999999999986,78,0,5.14,NE,1688021721
98,benghazi,32.1167,20.0667,24.779999999999973,68,0,1.89,LY,1688021721
99,metlili chaamba,32.2667,3.6333,29.670000000000016,17,0,2.57,DZ,1688021722
100,geraldton,-28.7667,114.6,18.379999999999995,45,0,5.66,AU,1688021722
101,laguna larga,-31.7765,-63.801,6.920000000000016,46,100,3.2,AR,1688021723
102,coahuayana de hidalgo,18.7,-103.6583,26.05000000000001,90,53,1.06,MX,1688021723
103,copala,16.65,-98.9833,25.389999999999986,90,100,1.65,MX,1688021723
104,chelak,39.9203,66.8611,29.569999999999993,13,0,3.74,UZ,1688021723
105,pathein,16.7833,94.7333,32.69999999999999,58,79,4.89,MM,1688021724
106,hacilar,38.6463,35.4494,21.980000000000018,46,20,1.54,TR,1688021725
107,mwinilunga,-11.7358,24.4293,22.069999999999993,43,0,2.39,ZM,1688021725
108,kailua-kona,19.6406,-155.9956,26.129999999999995,77,100,3.6,US,1688021725
109,taulaga,-11.0553,-171.0883,28.730000000000018,73,12,6.93,AS,1688021726
110,auxerre,47.8,3.5667,21.060000000000002,71,58,0.31,FR,1688021726
111,raduzhny,62.0961,77.475,11.45999999999998,86,100,5.22,RU,1688021726
112,petropavlovsk-kamchatsky,53.0452,158.6483,14.480000000000018,77,75,4.0,RU,1688021726
113,labrador city,52.9463,-66.9114,6.100000000000023,100,75,0.0,CA,1688021727
114,uturoa,-16.7333,-151.4333,27.360000000000014,76,6,7.56,PF,1688021727
115,pamandzi,-12.7967,45.2794,30.029999999999973,54,20,4.63,YT,1688021727
116,codrington,-38.2667,141.9667,11.329999999999984,79,100,7.85,AU,1688021727
117,gebeit,21.0667,36.3167,36.30000000000001,12,17,4.05,SD,1688021728
118,champerico,14.3,-91.9167,26.819999999999993,87,100,2.85,GT,1688021728
119,malanje,-9.5402,16.341,19.00999999999999,59,2,0.34,AO,1688021728
120,benito juarez,19.385,-99.165,19.05000000000001,64,75,4.12,MX,1688021461
121,puerto gaitan,4.3133,-72.0816,23.410000000000025,94,99,3.21,CO,1688021693
122,taoudenni,22.6783,-3.9836,36.14999999999998,14,3,1.8,ML,1688021729
123,hadibu,12.65,54.0333,26.389999999999986,78,81,13.23,YE,1688021729
124,mount isa,-20.7333,139.5,18.019999999999982,68,100,6.17,AU,1688021730
125,barra do bugres,-15.0725,-57.1811,18.160000000000025,61,0,0.56,BR,1688021730
126,tindouf,27.6711,-8.1474,29.399999999999977,11,2,4.12,DZ,1688021730
127,vilyuchinsk,52.9306,158.4028,15.300000000000011,98,100,2.16,RU,1688021731
128,nanao,37.05,136.9667,32.51999999999998,78,98,6.54,JP,1688021731
129,udachny,66.4167,112.4,18.180000000000007,41,100,6.8,RU,1688021731
130,queenstown,-31.8976,26.8753,8.480000000000018,72,91,6.93,ZA,1688021731
131,sirte,31.2089,16.5887,25.689999999999998,59,0,0.25,LY,1688021732
132,ilulissat,69.2167,-51.1,9.160000000000025,61,100,3.6,GL,1688021732
133,tiksi,71.6872,128.8694,16.899999999999977,37,0,10.43,RU,1688021732
134,puerto ayora,-0.7393,-90.3518,25.45999999999998,94,1,1.34,EC,1688021732
135,khandyga,62.6667,135.6,25.189999999999998,61,100,0.75,RU,1688021733
136,kolonia town,6.964,158.206,29.149999999999977,84,100,5.14,FM,1688021733
137,bidur,4.1167,101.2833,29.25,81,95,1.62,MY,1688021734
138,toliara,-23.35,43.6667,23.389999999999986,49,0,5.66,MG,1688021734
139,colchani,-20.3,-66.9333,-1.3600000000000136,32,0,1.51,BO,1688021734
140,khorramabad,33.4878,48.3558,32.94,13,0,2.06,IR,1688021734
141,haiku-pauwela,20.9219,-156.3051,24.620000000000005,74,100,6.69,US,1688021735
142,kindu,-2.95,25.95,26.089999999999975,79,64,0.42,CD,1688021735
143,papatowai,-46.5619,169.4708,8.439999999999998,85,82,6.07,NZ,1688021735
144,les avirons,-21.2418,55.3394,23.180000000000007,64,0,7.72,RE,1688021736
145,kodiak,57.79,-152.4072,10.879999999999995,87,100,0.0,US,1688021736
146,kasongo-lunda,-6.4667,16.8167,24.220000000000027,63,0,0.72,CD,1688021736
147,olonkinbyen,70.9221,-8.7187,5.610000000000014,99,100,4.86,SJ,1688021736
148,keflavik,64.0049,-22.5624,9.389999999999986,81,100,8.23,IS,1688021737
149,alofi,-19.0595,-169.9187,24.089999999999975,88,7,0.51,NU,1688021737
150,ola,59.5833,151.2833,24.120000000000005,80,96,3.54,RU,1688021737
151,new norfolk,-42.7826,147.0587,8.870000000000005,91,100,4.66,AU,1688021738
152,stanley,54.868,-1.6985,13.920000000000016,82,0,3.09,GB,1688021738
153,urengoy,65.9667,78.3667,20.589999999999975,36,100,4.22,RU,1688021738
154,soc trang,9.6033,105.98,31.819999999999993,62,74,5.35,VN,1688021738
155,atafu village,-8.5421,-172.5159,28.839999999999975,79,100,7.19,TK,1688021739
156,temerluh,3.4506,102.4176,35.139999999999986,65,99,1.34,MY,1688021739
157,trinidad,-14.8333,-64.9,22.569999999999993,73,100,2.52,BO,1688021739
158,aykhal,66.0,111.5,16.889999999999986,37,100,6.94,RU,1688021739
159,jayapura,-2.5333,140.7,31.810000000000002,72,25,2.33,ID,1688021740
160,benguela,-12.5763,13.4055,19.660000000000025,79,79,0.34,AO,1688021740
161,aoulef,26.9667,1.0833,34.389999999999986,13,4,7.79,DZ,1688021740
162,tazacorte,28.629,-17.9293,22.689999999999998,78,0,4.63,ES,1688021741
163,manokwari,-0.8667,134.0833,27.600000000000023,80,100,1.32,ID,1688021678
164,springbok,-29.6643,17.8865,8.569999999999993,94,100,3.19,ZA,1688021741
165,salinopolis,-0.6136,-47.3561,25.379999999999995,86,11,2.95,BR,1688021742
166,wynyard,-41.0,145.7167,10.139999999999986,81,100,7.82,AU,1688021742
167,sechura,-5.5569,-80.8222,21.899999999999977,77,0,5.1,PE,1688021743
168,trujillo,-8.116,-79.03,22.129999999999995,83,100,3.09,PE,1688021743
169,ingeniero guillermo n. juarez,-23.9,-61.85,15.990000000000009,72,100,3.43,AR,1688021743
170,ryotsu-minato,38.0833,138.4333,25.25,82,63,3.83,JP,1688021744
171,cianorte,-23.6633,-52.605,14.560000000000002,90,0,1.45,BR,1688021446
172,hamilton,39.1834,-84.5333,20.110000000000014,89,0,0.0,US,1688021496
173,flin flon,54.7682,-101.865,13.639999999999986,87,22,2.22,CA,1688021745
174,happy valley-goose bay,53.3168,-60.3315,15.319999999999993,94,100,2.06,CA,1688021745
175,hawaiian paradise park,19.5933,-154.9731,23.879999999999995,92,75,5.14,US,1688021745
176,fort st. john,56.2499,-120.8529,21.089999999999975,52,75,3.6,CA,1688021745
177,homer,59.6425,-151.5483,11.129999999999995,84,100,4.63,US,1688021746
178,ha'il,27.5219,41.6907,34.160000000000025,13,0,2.06,SA,1688021514
179,port mathurin,-19.6833,63.4167,23.00999999999999,67,23,10.54,MU,1688021746
180,jaffna,9.6685,80.0074,29.889999999999986,74,86,9.04,LK,1688021746
181,howrah,22.5892,88.3103,28.149999999999977,89,75,4.12,IN,1688021629
182,namibe,-15.1961,12.1522,18.0,59,75,0.61,AO,1688021747
183,fort bragg,35.139,-79.006,21.899999999999977,89,0,0.0,US,1688021635
184,tongliao,43.6125,122.2653,33.829999999999984,16,1,4.64,CN,1688021747
185,angaur state,6.906,134.13,25.610000000000014,91,100,6.23,PW,1688021748
186,touros,-5.1989,-35.4608,23.29000000000002,93,25,3.29,BR,1688021597
187,george town,5.4112,100.3354,30.110000000000014,84,20,4.12,MY,1688021749
188,tsengel,49.4783,100.8894,26.920000000000016,26,49,2.45,MN,1688021749
189,betioky,-23.7167,44.3833,22.029999999999973,49,0,3.79,MG,1688021749
190,fortuna,40.5982,-124.1573,12.889999999999986,93,100,0.0,US,1688021639
191,georgetown,5.4112,100.3354,30.110000000000014,84,20,4.12,MY,1688021749
192,san clemente del tuyu,-36.3569,-56.7235,4.029999999999973,86,77,3.66,AR,1688021750
193,argo,37.6333,22.7333,28.360000000000014,41,0,1.8,GR,1688021750
194,usoke,-5.1667,32.35,24.310000000000002,45,76,3.59,TZ,1688021750
195,maragogi,-9.0122,-35.2225,23.029999999999973,90,34,1.89,BR,1688021751
196,uniao da vitoria,-26.23,-51.0864,11.439999999999998,99,53,0.28,BR,1688021751
197,yur'yev-pol'skiy,56.5,39.6833,18.399999999999977,78,100,4.32,RU,1688021752
198,silver city,32.7701,-108.2803,23.129999999999995,45,75,2.68,US,1688021752
199,glace bay,46.1969,-59.957,20.589999999999975,95,100,6.17,CA,1688021752
200,wau,7.7029,27.9953,27.970000000000027,71,99,1.58,SS,1688021753
201,turbat,26.0023,63.044,36.24000000000001,46,100,4.71,PK,1688021753
202,tolanaro,-25.0319,46.9987,19.189999999999998,94,75,7.2,MG,1688021753
203,yarmouth,41.7057,-70.2286,20.689999999999998,94,100,5.14,US,1688021753
204,aasiaat,68.7098,-52.8699,2.920000000000016,93,100,1.89,GL,1688021754
205,susuman,62.7833,148.1667,27.839999999999975,38,96,8.09,RU,1688021754
206,talnakh,69.4865,88.3972,17.49000000000001,40,34,1.62,RU,1688021754
207,nova sintra,14.8667,-24.7167,21.420000000000016,79,27,8.5,CV,1688021755
208,luanda,-8.8368,13.2343,21.149999999999977,83,75,1.54,AO,1688021755
209,manggar,-2.8833,108.2667,29.730000000000018,69,95,5.32,ID,1688021755
210,nouadhibou,20.931,-17.0347,21.139999999999986,94,100,5.66,MR,1688021755
211,tofol,5.3248,163.0078,28.399999999999977,78,42,7.83,FM,1688021756
212,gonabad,34.3529,58.6837,34.94,13,0,9.57,IR,1688021756
213,lamu,-2.2717,40.902,26.269999999999982,76,94,6.74,KE,1688021661
214,constantia,44.1833,28.65,19.529999999999973,56,0,6.18,RO,1688021756
215,vif,45.05,5.6667,22.25,76,41,0.7,FR,1688021757
216,portland,45.5234,-122.6762,21.470000000000027,70,0,2.24,US,1688021511
217,naantali,60.4674,22.0243,23.170000000000016,65,0,1.03,FI,1688021757
218,pilisvorosvar,47.6139,18.9089,22.850000000000023,57,5,3.79,HU,1688021757
219,crane,31.3974,-102.3501,29.329999999999984,29,0,11.41,US,1688021758
220,katsuura,35.1333,140.3,26.100000000000023,82,100,8.69,JP,1688021758
221,karratha,-20.7377,116.8463,21.850000000000023,29,0,8.29,AU,1688021621
222,sinabang,2.4803,96.3801,27.24000000000001,85,100,3.07,ID,1688021759
223,naha,26.2125,127.6811,32.30000000000001,74,20,6.17,JP,1688021759
224,arkhangel'sk,64.5401,40.5433,19.769999999999982,40,70,2.07,RU,1688021555
225,gouyave,12.1646,-61.7296,26.579999999999984,89,20,5.14,GD,1688021760
226,onguday,50.75,86.15,15.810000000000002,72,99,3.48,RU,1688021760
227,sao joao da barra,-21.6403,-41.0511,19.779999999999973,86,0,2.49,BR,1688021760
228,sterling,39.0062,-77.4286,19.30000000000001,85,20,1.54,US,1688021731
229,san patricio,28.017,-97.5169,29.089999999999975,88,5,3.5,US,1688021761
230,omidiyeh,30.7597,49.705,37.079999999999984,20,0,5.14,IR,1688021761
231,milford haven,51.7128,-5.0341,14.100000000000023,85,0,6.27,GB,1688021762
232,kirensk,57.7853,108.1119,13.230000000000018,95,100,1.39,RU,1688021762
233,nuuk,64.1835,-51.7216,5.490000000000009,75,100,7.72,GL,1688021762
234,pskov,57.8136,28.3496,21.100000000000023,64,0,3.13,RU,1688021677
235,warmbad,-28.45,18.7333,11.310000000000002,81,86,5.24,NA,1688021763
236,alice springs,-23.7,133.8833,13.050000000000011,53,100,25.48,AU,1688021763
237,ust-nera,64.5667,143.2,25.94999999999999,46,100,1.23,RU,1688021764
238,undurkhaan,47.3194,110.6556,24.439999999999998,18,100,4.67,MN,1688021764
239,lompoc,34.6391,-120.4579,14.600000000000023,86,100,6.26,US,1688021764
240,arraial do cabo,-22.9661,-42.0278,20.689999999999998,77,0,2.13,BR,1688021764
241,tamanrasset,22.785,5.5228,26.100000000000023,41,6,3.6,DZ,1688021765
242,douglas,41.3,-96.167,25.75999999999999,83,0,3.6,US,1688021515
243,boundiali,9.5217,-6.4869,22.170000000000016,95,57,1.07,CI,1688021765
244,tarawa,1.419,172.984,24.19999999999999,94,100,2.57,KI,1688021766
245,pandan,14.0453,124.1694,29.95999999999998,72,53,0.78,PH,1688021766
246,shingu,33.7333,135.9833,30.189999999999998,63,99,5.3,JP,1688021766
247,la ronge,55.1001,-105.2842,14.29000000000002,67,20,0.51,CA,1688021767
248,mangai,-4.05,19.5333,25.339999999999975,77,15,0.94,CD,1688021767
249,christchurch,-43.5333,172.6333,10.660000000000025,81,100,2.06,NZ,1688021473
250,cockburn town,21.4612,-71.1419,28.44999999999999,76,3,5.73,TC,1688021768
251,ganjam,19.3833,85.0667,32.579999999999984,66,97,8.0,IN,1688021768
252,esquel,-42.9,-71.3167,-0.4900000000000091,90,95,1.86,AR,1688021768
253,buala,-8.145,159.5921,26.850000000000023,84,100,2.32,SB,1688021768
254,punta arenas,-53.15,-70.9167,1.2099999999999795,100,100,0.0,CL,1688021664
255,west monroe,32.5185,-92.1476,28.149999999999977,85,0,1.54,US,1688021769
256,nantucket,41.2835,-70.0995,19.639999999999986,98,100,4.12,US,1688021770
257,cafayate,-26.073,-65.9761,10.70999999999998,80,84,1.32,AR,1688021770
258,brisas de zicatela,15.8369,-97.0419,26.649999999999977,85,100,1.65,MX,1688021770
259,kavaratti,10.5669,72.642,29.05000000000001,75,100,8.7,IN,1688021771
260,kapuskasing,49.4169,-82.4331,10.199999999999989,81,40,1.54,CA,1688021771
261,carutapera,-1.195,-46.02,23.50999999999999,95,31,2.1,BR,1688021771
262,murgeni,46.2044,28.0197,20.74000000000001,53,7,3.45,RO,1688021772
263,sovetskaya gavan',48.9723,140.2878,14.5,77,0,4.86,RU,1688021772
264,ulladulla,-35.35,150.4667,12.029999999999973,51,1,1.92,AU,1688021772
265,chissamba,-12.1667,17.3333,18.069999999999993,37,0,1.54,AO,1688021773
266,sabang,5.8933,95.3214,27.889999999999986,78,100,8.78,ID,1688021773
267,cururupu,-1.8283,-44.8683,22.779999999999973,96,45,1.0,BR,1688021773
268,pariaman,-0.619,100.12,31.180000000000007,72,100,2.79,ID,1688021773
269,dogondoutchi,13.6393,4.0287,29.970000000000027,52,100,4.87,NE,1688021774
270,hukumati azrah,34.1736,69.6457,23.810000000000002,24,0,2.67,AF,1688021774
271,bodo,67.28,14.405,19.560000000000002,84,0,3.13,NO,1688021774
272,puerto san jose,13.9256,-90.8244,26.54000000000002,85,100,1.63,GT,1688021775
273,zhalantun,48.0,122.7167,25.25,43,5,2.14,CN,1688021775
274,port lincoln,-34.7333,135.8667,12.910000000000025,62,100,4.81,AU,1688021775
275,ngaoundere,7.3167,13.5833,19.350000000000023,94,100,2.13,CM,1688021775
276,el rosario,24.2556,-107.1828,27.120000000000005,78,7,1.94,MX,1688021776
277,maintirano,-18.0667,44.0167,25.420000000000016,43,6,1.31,MG,1688021776
278,flying fish cove,-10.4217,105.6791,25.970000000000027,69,6,5.66,CX,1688021776
279,banksia grove,-31.6955,115.8034,16.45999999999998,45,3,2.47,AU,1688021777
280,villaguay,-31.8653,-59.0269,8.410000000000025,55,100,2.5,AR,1688021777
281,kashgar,39.4547,75.9797,29.70999999999998,20,0,4.0,CN,1688021777
282,lensk,60.7253,114.9278,25.779999999999973,39,92,2.06,RU,1688021777
283,thomson,33.4707,-82.5046,21.50999999999999,93,0,0.0,US,1688021778
284,quirinopolis,-18.4483,-50.4517,16.860000000000014,59,0,1.12,BR,1688021778
285,aguada de pasajeros,22.385,-80.8508,24.230000000000018,89,21,2.28,CU,1688021779
286,kingston,17.997,-76.7936,28.680000000000007,74,20,0.51,JM,1688021561
287,dajal,29.5577,70.3762,40.74000000000001,29,5,2.33,PK,1688021779
288,lebu,-37.6167,-73.65,8.29000000000002,81,97,3.01,CL,1688021779
289,revda,56.801,59.9303,19.75999999999999,70,54,2.55,RU,1688021780
290,shimoda,34.6667,138.95,31.319999999999993,79,100,8.1,JP,1688021780
291,osby,56.3816,13.9936,21.600000000000023,58,10,2.44,SE,1688021695
292,taroa,8.7058,171.2275,28.480000000000018,77,100,5.82,MH,1688021781
293,tome acu,-2.4189,-48.1522,22.389999999999986,93,5,0.95,BR,1688021597
294,nagqu,31.5,92.0,12.910000000000025,54,97,1.9,CN,1688021781
295,la'ie,21.6477,-157.9253,26.129999999999995,77,1,1.79,US,1688021782
296,yung shue wan,22.2333,114.1167,33.829999999999984,76,95,3.27,HK,1688021782
297,howard springs,-12.497,131.047,32.10000000000002,31,4,3.74,AU,1688021782
298,usinsk,65.9939,57.5281,10.509999999999991,56,100,1.12,RU,1688021783
299,praia da vitoria,38.7333,-27.0667,21.680000000000007,88,75,7.18,PT,1688021783
300,quiberon,47.4841,-3.1196,17.970000000000027,89,100,1.79,FR,1688021783
301,severo-yeniseyskiy,60.3725,93.0408,15.139999999999986,88,100,3.64,RU,1688021784
302,taradale,-39.5333,176.85,12.379999999999995,68,1,1.34,NZ,1688021784
303,haci zeynalabdin,40.6233,49.5586,29.230000000000018,46,5,3.98,AZ,1688021784
304,chadron,42.8294,-102.9999,17.00999999999999,78,75,2.57,US,1688021784
305,tucurui,-3.7661,-49.6725,23.389999999999986,78,31,0.93,BR,1688021785
306,ixtapa,20.7,-105.2,26.439999999999998,86,100,1.48,MX,1688021785
307,mangalia,43.8,28.5833,21.24000000000001,54,0,6.91,RO,1688021785
308,malaya vishera,58.8454,32.2222,22.25,54,100,3.88,RU,1688021785
309,cooma,-36.2333,149.1333,4.110000000000014,72,5,3.75,AU,1688021786
310,weno,7.4515,151.8468,28.620000000000005,79,87,4.74,FM,1688021786
311,naples manor,26.0887,-81.7262,28.149999999999977,68,0,1.54,US,1688021787
312,sao tome,0.3365,6.7273,25.55000000000001,77,100,4.05,ST,1688021787
313,urangan,-25.3,152.9,19.69999999999999,66,97,5.12,AU,1688021788
314,guiuan,11.0333,125.7247,29.069999999999993,71,100,0.65,PH,1688021788
315,saint-arnoult-en-yvelines,48.5667,1.9333,21.389999999999986,85,100,1.57,FR,1688021788
316,kerikeri,-35.2268,173.9474,12.319999999999993,87,100,2.03,NZ,1688021788
317,timashevsk,45.6169,38.9453,25.879999999999995,54,13,3.74,RU,1688021789
318,ihosy,-22.4,46.1167,18.639999999999986,64,13,4.27,MG,1688021790
319,porto novo,6.4965,2.6036,25.05000000000001,90,97,1.6,BJ,1688021791
320,coihueco,-36.6167,-71.8333,3.5600000000000023,100,100,2.57,CL,1688021791
321,dixiana,33.9193,-81.0593,23.230000000000018,77,0,1.54,US,1688021791
322,oued fodda,36.185,1.533,23.95999999999998,78,82,3.09,DZ,1688021792
323,kataba,13.9833,44.3833,28.319999999999993,13,55,3.53,YE,1688021792
324,baoqing,46.3317,132.2111,27.25,69,60,1.07,CN,1688021792
325,fale old settlement,-9.3852,-171.2468,28.939999999999998,78,37,7.38,TK,1688021792
326,afaahiti,-17.75,-149.2833,24.079999999999984,83,65,7.45,PF,1688021793
327,tura,25.5198,90.2201,24.110000000000014,98,100,2.47,IN,1688021793
328,fisterra,42.9049,-9.2629,17.79000000000002,89,92,8.27,ES,1688021793
329,pisco,-13.7,-76.2167,15.720000000000027,88,20,1.03,PE,1688021794
330,suixi,33.8907,116.7747,25.74000000000001,83,100,2.72,CN,1688021794
331,yuzhno-kurilsk,44.0306,145.8556,15.389999999999986,96,100,0.54,RU,1688021794
332,onega,63.9061,38.1404,18.350000000000023,41,42,1.35,RU,1688021794
333,diglur,18.55,77.6,31.819999999999993,52,100,7.0,IN,1688021711
334,burgersdorp,-30.9977,26.3286,6.259999999999991,75,98,7.37,ZA,1688021795
335,mabai,23.0128,104.4508,25.839999999999975,66,100,3.67,CN,1688021795
336,walvis bay,-22.9575,14.5053,13.949999999999989,56,39,2.93,NA,1688021795
337,kavieng,-2.5744,150.7967,27.860000000000014,74,100,2.02,PG,1688021796
338,berezovyy,51.6667,135.7,27.269999999999982,44,100,2.88,RU,1688021797
339,rongelap,11.1635,166.8941,28.24000000000001,80,100,7.52,MH,1688021797
340,yaren,-0.5472,166.916,27.95999999999998,78,100,2.33,NR,1688021797
341,yakeshi,49.2833,120.7333,20.560000000000002,39,100,4.43,CN,1688021797
342,cidreira,-30.1811,-50.2056,11.870000000000005,80,100,3.62,BR,1688021798
343,acarau,-2.8856,-40.12,25.810000000000002,77,100,5.61,BR,1688021798
344,say,13.1007,2.3689,27.45999999999998,65,94,4.56,NE,1688021798
345,bubaque,11.2833,-15.8333,26.94999999999999,79,98,3.27,GW,1688021799
346,santa quiteria do maranhao,-3.5156,-42.5467,22.980000000000018,85,17,1.4,BR,1688021799
347,novaya igirma,57.1334,103.9112,25.029999999999973,29,92,1.95,RU,1688021799
348,bu'aale,1.0833,42.5833,30.360000000000014,51,95,6.19,SO,1688021799
349,taltal,-25.4,-70.4833,16.310000000000002,73,5,1.47,CL,1688021800
350,macas,-2.3167,-78.1167,19.810000000000002,98,100,0.42,EC,1688021800
351,avsallar,36.616,31.7806,28.00999999999999,61,0,2.07,TR,1688021800
352,hasaki,35.7333,140.8333,33.05000000000001,73,98,7.97,JP,1688021800
353,san fernando,15.0286,120.6898,33.0,63,99,4.54,PH,1688021801
354,barauna,-5.08,-37.6167,24.44999999999999,72,100,3.32,BR,1688021801
355,carrizo springs,28.5219,-99.8606,29.49000000000001,54,0,7.05,US,1688021801
356,selfoss,63.9331,-20.9971,8.509999999999991,82,99,6.44,IS,1688021802
357,fatezh,52.0891,35.8632,19.139999999999986,65,73,8.03,RU,1688021802
358,calafindesti,47.85,26.1167,18.389999999999986,64,54,5.38,RO,1688021802
359,kembe,4.6228,21.8865,24.569999999999993,87,100,1.4,CF,1688021802
360,barra do corda,-5.5,-45.25,25.610000000000014,61,96,1.22,BR,1688021803
361,saint-joseph,-21.3667,55.6167,23.74000000000001,67,48,6.33,RE,1688021803
362,nadym,65.5333,72.5167,9.009999999999991,79,100,6.01,RU,1688021803
363,guangming,45.3333,122.7833,29.50999999999999,23,0,3.78,CN,1688021804
364,hermanus,-34.4187,19.2345,14.480000000000018,80,72,7.19,ZA,1688021804
365,manta,-0.95,-80.7333,26.819999999999993,78,75,4.92,EC,1688021804
366,east london,-33.0153,27.9116,13.670000000000016,67,0,4.63,ZA,1688021804
367,callaway,30.153,-85.5699,27.360000000000014,84,0,0.0,US,1688021805
368,oropesa del mar,40.1,0.15,28.430000000000007,69,0,1.42,ES,1688021805
369,torghay,49.6339,63.4981,28.779999999999973,19,8,4.66,KZ,1688021806
370,suhbaatar,50.2314,106.2078,25.180000000000007,30,22,2.36,MN,1688021806
371,jiangyou,31.7667,104.7167,32.339999999999975,47,86,2.35,CN,1688021806
372,karungdong,5.8844,121.263,29.029999999999973,73,100,1.14,PH,1688021807
373,oranjemund,-28.55,16.4333,14.050000000000011,82,62,1.74,NA,1688021807
374,taro,-8.3862,115.28,26.149999999999977,74,53,2.13,ID,1688021807
375,nong phai,15.9903,101.0618,34.079999999999984,54,78,2.43,TH,1688021808
376,silopi,37.2497,42.4694,35.89999999999998,15,0,2.73,TR,1688021808
377,umba,66.6871,34.3429,12.930000000000007,89,100,2.2,RU,1688021808
378,beyla,8.6833,-8.6333,20.05000000000001,99,79,1.17,GN,1688021809
379,marat,25.0701,45.4615,38.170000000000016,6,85,2.11,SA,1688021809
380,nemuro,43.3236,145.575,13.779999999999973,100,100,0.75,JP,1688021809
381,iskateley,67.6803,53.1512,10.95999999999998,57,100,2.33,RU,1688021810
382,kill devil hills,36.0307,-75.676,23.470000000000027,93,100,0.0,US,1688021539
383,horta,38.5333,-28.6333,21.269999999999982,80,75,7.72,PT,1688021810
384,malvan,16.0667,73.4667,28.05000000000001,80,100,7.25,IN,1688021810
385,mukalla,14.5425,49.1242,33.160000000000025,61,12,2.52,YE,1688021811
386,akureyri,65.6835,-18.0878,9.110000000000014,71,75,5.66,IS,1688021811
387,la mira,18.035,-102.3266,26.379999999999995,85,43,1.72,MX,1688021811
388,kourou,5.1552,-52.6478,23.180000000000007,93,100,1.68,GF,1688021812
389,conselheiro lafaiete,-20.6603,-43.7861,11.319999999999993,75,0,0.72,BR,1688021812
390,tabou,4.423,-7.3528,24.430000000000007,83,100,3.64,CI,1688021812
391,dudinka,69.4058,86.1778,17.720000000000027,38,100,2.75,RU,1688021813
392,turpan,42.9333,89.1667,40.829999999999984,11,28,2.03,CN,1688021813
393,tulum,20.2167,-87.4667,25.00999999999999,94,27,2.0,MX,1688021727
394,minas de marcona,-15.2119,-75.1103,12.149999999999977,88,67,4.63,PE,1688021814
395,bereeda,11.8704,51.0579,34.54000000000002,45,100,5.71,SO,1688021814
396,kawant,22.1,74.05,25.74000000000001,89,100,5.43,IN,1688021815
397,callao,-12.0667,-77.15,21.100000000000023,77,100,5.14,PE,1688021815
398,dindima,10.2263,10.1513,24.279999999999973,74,100,2.69,NG,1688021815
399,mar del plata,-38.0023,-57.5575,7.339999999999975,83,0,6.71,AR,1688021816
400,mangrol,21.1167,70.1167,27.220000000000027,84,100,7.29,IN,1688021816
401,nova vicosa,-17.8919,-39.3719,21.5,85,0,0.84,BR,1688021816
402,holualoa,19.6228,-155.9522,24.060000000000002,79,100,3.6,US,1688021816
403,iguatu,-6.3594,-39.2986,22.029999999999973,77,80,2.28,BR,1688021817
404,nuriootpa,-34.4833,139.0,11.54000000000002,73,10,4.81,AU,1688021817
405,antsiranana,-12.2787,49.2917,26.569999999999993,53,40,10.8,MG,1688021817
406,rio grande,-32.035,-52.0986,5.1200000000000045,74,100,4.74,BR,1688021818
407,chibougamau,49.9168,-74.3659,12.939999999999998,94,0,2.06,CA,1688021818
408,taichung,24.1469,120.6839,35.420000000000016,56,75,6.17,TW,1688021818
409,lyuban',52.7985,28.0048,16.079999999999984,87,100,6.49,BY,1688021818
410,sao jose da coroa grande,-8.8978,-35.1478,23.360000000000014,90,32,2.24,BR,1688021819
411,qui nhon,13.7667,109.2333,29.870000000000005,73,15,4.4,VN,1688021819
412,santarem,-2.4431,-54.7083,26.220000000000027,94,20,1.03,BR,1688021819
413,luba,3.4568,8.5547,25.660000000000025,83,88,0.97,GQ,1688021819
414,hami,42.8,93.45,37.01999999999998,8,83,2.99,CN,1688021820
415,hwange,-18.3693,26.5019,18.80000000000001,48,1,1.75,ZW,1688021820
416,alaghsas,17.0187,8.0168,29.089999999999975,48,0,4.12,NE,1688021820
417,karaidel',55.8337,56.9069,21.129999999999995,74,100,3.45,RU,1688021821
418,nsanje,-16.92,35.262,23.24000000000001,50,5,1.72,MW,1688021821
419,itaituba,-4.2761,-55.9836,23.44999999999999,72,72,0.56,BR,1688021821
420,korla,41.7597,86.1469,32.870000000000005,18,100,5.47,CN,1688021821
421,sorong,-0.8833,131.25,28.350000000000023,79,90,1.66,ID,1688021822
422,rikaze,29.25,88.8833,22.339999999999975,26,100,1.88,CN,1688021822
423,svetlyy,54.675,20.1347,21.180000000000007,72,59,5.0,RU,1688021823
424,valdez,1.2492,-78.9831,26.360000000000014,87,68,0.71,EC,1688021823
425,prince rupert,54.3161,-130.3201,14.980000000000018,92,100,6.69,CA,1688021824
426,kolokani,13.5728,-8.0339,25.95999999999998,72,84,2.64,ML,1688021824
427,talavera de la reina,39.9635,-4.8308,27.120000000000005,26,0,1.28,ES,1688021824
428,escanaba,45.7453,-87.0646,18.319999999999993,77,75,3.09,US,1688021825
429,gunjur,13.2019,-16.7339,26.189999999999998,89,40,0.0,GM,1688021825
430,bozhou,33.8772,115.7703,26.0,77,100,1.99,CN,1688021825
431,santa cruz,-17.8,-63.1667,18.850000000000023,77,75,6.69,BO,1688021826
432,dunedin,-45.8742,170.5036,9.480000000000018,70,13,4.02,NZ,1688021707
433,makamba,-4.1348,29.804,23.139999999999986,58,95,2.24,BI,1688021826
434,puerto baquerizo moreno,-0.9,-89.6,25.20999999999998,84,0,3.87,EC,1688021543
435,faya-largeau,17.9257,19.1043,34.85000000000002,14,57,11.45,TD,1688021827
436,williams lake,52.1415,-122.1445,18.910000000000025,78,75,2.06,CA,1688021827
437,ar ruways,24.1103,52.7306,35.620000000000005,39,97,3.42,AE,1688021827
438,remire-montjoly,4.9167,-52.2667,23.170000000000016,100,0,0.0,GF,1688021828
439,chiredzi,-21.05,31.6667,20.279999999999973,40,0,1.54,ZW,1688021828
440,hithadhoo,-0.6,73.0833,28.029999999999973,59,85,1.67,MV,1688021828
441,dwarka,22.2394,68.9678,29.370000000000005,80,100,6.89,IN,1688021828
442,melfort,52.8667,-104.6177,14.220000000000027,82,6,2.57,CA,1688021829
443,kochubey,44.3861,46.5825,29.910000000000025,34,35,4.63,RU,1688021829
444,nelson bay,-32.7167,152.15,15.180000000000007,70,5,2.68,AU,1688021829
445,el granada,37.5027,-122.4694,15.189999999999998,91,100,5.66,US,1688021830
446,zhangye,38.9342,100.4517,34.19,10,0,2.48,CN,1688021830
447,yangambi,0.8102,24.4336,24.99000000000001,82,100,1.43,CD,1688021831
448,djambala,-2.5447,14.7533,21.879999999999995,71,100,2.24,CG,1688021831
449,guarapari,-20.6667,-40.4975,18.420000000000016,68,0,1.54,BR,1688021831
450,pacific grove,36.6177,-121.9166,13.600000000000023,92,100,2.06,US,1688021831
451,saldanha,-33.0117,17.9442,13.180000000000007,80,96,5.45,ZA,1688021832
452,mount pearl,47.5166,-52.7813,20.339999999999975,94,100,3.6,CA,1688021833
453,plesetsk,62.708,40.2916,20.639999999999986,37,44,2.08,RU,1688021833
454,nadi,-17.8,177.4167,23.149999999999977,68,20,3.09,FJ,1688021834
455,strelka,58.0728,93.0344,21.589999999999975,52,98,3.6,RU,1688021834
456,puerto deseado,-47.7503,-65.8938,4.899999999999977,85,100,4.08,AR,1688021834
457,walterboro,32.9052,-80.6668,25.04000000000002,94,0,0.0,US,1688021805
458,aba,5.1066,7.3667,23.439999999999998,94,100,1.17,NG,1688021714
459,olingan,8.5314,123.3194,28.939999999999998,79,96,3.64,PH,1688021835
460,hualien city,23.9769,121.6044,29.189999999999998,87,100,4.57,TW,1688021836
461,bambanglipuro,-7.95,110.2833,26.920000000000016,80,63,5.71,ID,1688021836
462,naze,28.3667,129.4833,28.660000000000025,80,53,5.86,JP,1688021837
463,lazaro cardenas,17.9583,-102.2,27.069999999999993,83,34,1.97,MX,1688021837
464,santa eularia des riu,38.9846,1.5341,26.269999999999982,80,0,4.63,ES,1688021837
465,zabaykal'sk,49.6333,117.3167,23.660000000000025,22,100,5.68,RU,1688021838
466,koulikoro,14.0,-7.75,27.029999999999973,70,100,3.0,ML,1688021838
467,perryton,36.4,-100.8027,20.110000000000014,42,0,4.63,US,1688021839
468,carauari,-4.8828,-66.8958,23.649999999999977,84,66,0.91,BR,1688021839
469,sumbe,-11.2061,13.8437,20.24000000000001,80,5,1.0,AO,1688021840
470,olinda,-8.0089,-34.8553,23.0,100,75,1.54,BR,1688021840
471,nyurba,63.2842,118.3319,26.95999999999998,55,100,2.61,RU,1688021840
472,andovoranto,-18.95,49.1,22.310000000000002,70,94,2.07,MG,1688021841
473,de haan,51.272,3.0429,20.279999999999973,79,75,2.57,BE,1688021841
474,novyy urgal,51.0736,132.5642,31.470000000000027,27,100,2.91,RU,1688021842
475,zapolyarnyy,69.4154,30.8136,9.75,64,93,4.43,RU,1688021842
476,castiglion fiorentino,43.3428,11.918,24.399999999999977,57,1,1.98,IT,1688021842
477,ganganagar,29.9167,73.8833,40.089999999999975,30,8,0.48,IN,1688021843
478,yanchep,-31.55,115.6833,16.230000000000018,44,3,2.37,AU,1688021843
479,dadukou,26.5479,101.7054,33.70999999999998,43,98,1.67,CN,1688021843
480,zhaqsy,51.9083,67.3133,23.29000000000002,38,37,5.51,KZ,1688021844
481,las heras,-46.5419,-68.9359,1.1800000000000068,75,100,1.51,AR,1688021844
482,kakching,24.4833,93.9833,30.310000000000002,57,100,2.74,IN,1688021844
483,pyt-yakh,60.7499,72.8582,18.189999999999998,58,80,4.81,RU,1688021845
484,cole harbour,44.6724,-63.4751,18.810000000000002,98,100,6.17,CA,1688021845
485,kandyagash,49.4744,57.4233,26.069999999999993,32,31,4.44,KZ,1688021845
486,amga,60.8953,131.9608,28.0,54,85,2.6,RU,1688021846
487,magadan,59.5667,150.8,23.779999999999973,76,99,3.47,RU,1688021846
488,atbara,17.7022,33.9864,38.879999999999995,8,8,7.6,SD,1688021847
489,dhromolaxia,34.8755,33.5868,30.0,69,20,2.57,CY,1688021847
490,linhares,-19.3911,-40.0722,18.160000000000025,96,0,1.05,BR,1688021847
491,axim,4.8699,-2.2405,24.680000000000007,86,100,1.56,GH,1688021847
492,floro,61.5996,5.0328,15.829999999999984,77,40,2.06,NO,1688021848
493,sandnessjoen,66.0217,12.6316,18.439999999999998,100,100,2.06,NO,1688021848
494,abepura,-2.6333,140.5833,31.600000000000023,55,20,1.54,ID,1688021848
495,barclayville,4.6797,-8.2339,24.079999999999984,83,100,2.11,LR,1688021849
496,dryden,49.7833,-92.7503,17.310000000000002,94,100,3.6,CA,1688021849
497,brezina,33.0989,1.2608,28.769999999999982,22,84,1.92,DZ,1688021849
498,wuhai,39.6647,106.8122,32.70999999999998,10,0,2.47,CN,1688021849
499,vernon,50.2581,-119.2691,22.24000000000001,51,11,1.03,CA,1688021850
500,morehead city,34.7229,-76.726,25.70999999999998,89,0,0.0,US,1688021607
501,lerwick,60.1545,-1.1494,13.149999999999977,82,76,5.27,GB,1688021850
502,karlskrona,56.1616,15.5866,18.399999999999977,66,100,3.2,SE,1688021850
503,guiglo,6.5456,-7.4966,21.649999999999977,99,100,1.06,CI,1688021851
504,saint croix,17.7397,-64.7388,25.399999999999977,83,100,8.23,VI,1688021851
505,puerto real,36.5282,-6.1901,23.24000000000001,88,100,4.63,ES,1688021820
506,kaya,13.0917,-1.0844,28.220000000000027,62,96,3.29,BF,1688021852
507,sukumo,32.9333,132.7333,28.339999999999975,76,100,3.22,JP,1688021852
508,darwin,-12.4611,130.8418,32.139999999999986,43,0,4.12,AU,1688021569
509,elverum,60.8819,11.5623,19.95999999999998,61,100,1.81,NO,1688021853
510,zhuanghe,39.7008,122.9911,24.30000000000001,76,100,5.67,CN,1688021853
511,villa zempoala,19.45,-96.4167,26.769999999999982,91,44,0.49,MX,1688021854
512,ambodifotatra,-16.9833,49.85,22.25,78,100,2.21,MG,1688021854
513,tinajo,29.0788,-13.7081,21.639999999999986,83,20,5.14,ES,1688021854
514,thomaston,32.8882,-84.3266,22.420000000000016,82,0,1.54,US,1688021855
515,tangalle,6.024,80.7911,34.24000000000001,63,21,7.62,LK,1688021855
516,coruripe,-10.1256,-36.1756,23.310000000000002,87,49,1.15,BR,1688021855
517,la passe,45.5549,-0.8967,19.579999999999984,72,5,3.73,FR,1688021855
518,marathon,44.9,-89.7668,21.730000000000018,65,40,7.2,US,1688021856
519,castillos,-34.1667,-53.8333,7.7099999999999795,81,99,2.63,UY,1688021856
520,didymoteicho,41.3481,26.4961,18.170000000000016,73,94,4.78,GR,1688021856
521,alpena,45.0617,-83.4327,17.99000000000001,83,75,0.0,US,1688021857
522,petrozavodsk,61.7849,34.3469,21.850000000000023,60,0,2.0,RU,1688021562
523,shibganj,24.6829,88.1598,35.629999999999995,50,73,4.06,BD,1688021857
524,zhezqazghan,47.7833,67.7667,25.470000000000027,18,0,3.0,KZ,1688021857
525,strezhevoy,60.7333,77.5889,14.600000000000023,66,100,7.53,RU,1688021858
526,newman,37.3138,-121.0208,23.279999999999973,57,0,2.21,US,1688021858
527,kunming,25.0389,102.7183,27.110000000000014,47,75,7.0,CN,1688021859
528,saipan,15.1355,145.701,31.54000000000002,100,40,5.66,MP,1688021859
529,colonia,50.9333,6.95,21.75,73,0,1.54,DE,1688021745
530,siguiri,11.6667,-9.5,23.889999999999986,88,22,1.25,GN,1688021859
531,luwuk,-0.9516,122.7875,28.620000000000005,81,44,1.65,ID,1688021860
532,jilib,0.4883,42.7854,30.230000000000018,52,96,5.87,SO,1688021860
533,greymouth,-42.4667,171.2,9.529999999999973,84,97,0.13,NZ,1688021860
534,buta,2.7858,24.73,25.319999999999993,83,100,1.33,CD,1688021721
535,madanapalle,13.55,78.5,32.110000000000014,43,68,7.0,IN,1688021861
536,kapsan-up,41.0903,128.2933,23.470000000000027,58,100,3.22,KP,1688021861
537,leca da palmeira,41.191,-8.7003,20.19999999999999,84,0,2.57,PT,1688021861
538,minsk mazowiecki,52.1794,21.5725,18.75,62,8,6.17,PL,1688021862
539,ibiza,38.9088,1.433,26.220000000000027,80,0,4.63,ES,1688021738
540,richlands,37.0932,-81.7937,17.180000000000007,100,0,0.0,US,1688021862
541,nar'yan-mar,67.6713,53.087,11.060000000000002,57,100,2.28,RU,1688021863
542,dagda,56.0951,27.5372,20.089999999999975,54,99,4.53,LV,1688021863
543,antsohihy,-14.8796,47.9875,28.310000000000002,33,63,2.39,MG,1688021863
544,coyhaique,-45.5752,-72.0662,-0.8799999999999955,93,100,1.03,CL,1688021864
545,rosso,16.4986,-15.8153,25.170000000000016,81,98,4.59,SN,1688021864
546,nizhniy kuranakh,58.8353,125.4869,29.870000000000005,41,76,1.74,RU,1688021864
547,punta de bombon,-17.1717,-71.7931,16.54000000000002,82,80,1.59,PE,1688021864
548,majene,-3.5403,118.9707,29.089999999999975,76,86,1.92,ID,1688021865
549,allende,25.2833,-100.0167,24.50999999999999,67,4,1.9,MX,1688021865
550,tamarin,-20.3256,57.3706,24.879999999999995,63,93,8.23,MU,1688021865
551,governador valadares,-18.8511,-41.9494,16.980000000000018,72,0,0.65,BR,1688021866
552,kurchum,48.5722,83.6542,23.910000000000025,29,42,6.55,KZ,1688021866
553,nogliki,51.8333,143.1667,9.899999999999977,93,100,4.24,RU,1688021866
554,penhalonga,-18.8911,32.6978,17.600000000000023,43,9,0.47,ZW,1688021866
555,nuku'alofa,-21.1333,-175.2,21.339999999999975,83,20,1.03,TO,1688021867
556,bonthe,7.5264,-12.505,25.480000000000018,82,100,1.72,SL,1688021867
557,watertown,42.3709,-71.1828,20.379999999999995,95,40,2.57,US,1688021798
558,vikhorevka,56.1201,101.1636,21.920000000000016,32,29,0.88,RU,1688021867
559,kamaishi,39.2667,141.8833,23.930000000000007,76,99,2.12,JP,1688021868
560,egilsstadir,65.2653,-14.3948,11.100000000000023,66,75,3.6,IS,1688021868
561,usogorsk,63.4106,48.6872,19.970000000000027,36,71,1.28,RU,1688021868
562,boa vista,2.8197,-60.6733,25.139999999999986,88,75,0.51,BR,1688021868
563,guerrero negro,27.9769,-114.0611,16.160000000000025,90,2,5.54,MX,1688021869
564,mpulungu,-8.7623,31.1141,27.189999999999998,42,74,2.46,ZM,1688021869
565,saint-vith,50.2815,6.1272,19.25,66,100,2.24,BE,1688021869
566,nurota,40.5614,65.6886,30.480000000000018,13,0,6.11,UZ,1688021870
567,ovalle,-30.5983,-71.2003,15.569999999999993,49,100,0.63,CL,1688021870
568,san juan,-31.5375,-68.5364,10.490000000000009,47,0,4.7,AR,1688021870
569,turkmenbasy,40.0222,52.9552,28.579999999999984,39,0,4.12,TM,1688021871
570,wewak,-3.5534,143.6268,28.370000000000005,75,50,3.2,PG,1688021871
571,guiberoua,6.2392,-6.1727,21.25,98,95,0.95,CI,1688021871
572,carrizal,10.3499,-66.9863,19.75999999999999,92,100,0.41,VE,1688021871
573,ilebo,-4.3167,20.5833,27.149999999999977,68,29,1.14,CD,1688021872
574,siwa oasis,29.2041,25.5195,29.620000000000005,38,0,3.13,EG,1688021872
575,chonchi,-42.6128,-73.8092,6.329999999999984,90,100,2.3,CL,1688021872
576,robore,-18.3333,-59.75,17.019999999999982,93,0,1.51,BO,1688021873
577,kencong,-8.2833,113.3667,28.160000000000025,71,89,3.99,ID,1688021873
578,tallinn,59.437,24.7535,22.20999999999998,64,0,1.54,EE,1688021873
579,kruisfontein,-34.0033,24.7314,13.970000000000027,67,100,3.19,ZA,1688021874
580,ouddorp,51.8117,3.9347,20.230000000000018,79,100,6.45,NL,1688021575
581,hohhot,40.8106,111.6522,29.310000000000002,21,0,6.0,CN,1688021874
582,kulhudhuffushi,6.6221,73.07,28.50999999999999,76,44,7.3,MV,1688021875
583,fortaleza,-3.7227,-38.5247,25.269999999999982,83,0,5.14,BR,1688021700
584,palmer,42.1584,-72.3287,18.899999999999977,86,0,0.0,US,1688021804
585,bosaso,11.2842,49.1816,35.139999999999986,41,0,15.95,SO,1688021875
586,oak grove,45.4168,-122.6401,21.19999999999999,70,63,0.89,US,1688021876
587,codajas,-3.8367,-62.0569,23.360000000000014,77,46,1.3,BR,1688021876
588,ghat,24.9647,10.1728,35.45999999999998,12,2,5.47,LY,1688021876
589,at taj,24.2049,23.2857,32.01999999999998,21,0,5.17,LY,1688021877
590,princeville,45.7668,-61.2985,21.680000000000007,96,100,3.6,CA,1688021877
591,qom,34.6401,50.8764,34.56999999999999,17,0,2.76,IR,1688021877
592,luderitz,-26.6481,15.1594,13.819999999999993,86,3,3.84,NA,1688021877
593,port saint john's,-31.6229,29.5448,18.19999999999999,63,100,2.9,ZA,1688021878
